name,address,latitude,longitude,category,avg_rating,num_of_reviews,url,restaurant,bakery,dessert,pastry,closed,zip,st
Cape Seafood Shack,"Cape Seafood Shack, 603 Del Prado Blvd S, Cape Coral, FL 33990",26.640625,-81.9375,Restaurant,5,1,https://www.google.com/maps/place//data=!4m2!3m1!1s0x88db4147b1d9e6f3:0x943dbd10a92ba1b1?authuser=-1&hl=en&gl=us,1,0,0,0,1,33990,FL
Fresh Point Country Buffet,"Fresh Point Country Buffet, 10525 US-19, Pinellas Park, FL 33782",27.875,-82.6875,Buffet restaurant,5,2,https://www.google.com/maps/place//data=!4m2!3m1!1s0x88c2e4e34f1ed783:0x76c5da381c499d79?authuser=-1&hl=en&gl=us,1,0,0,0,1,33782,FL
Oneyda's Bakery,"Oneyda's Bakery, 600 Goodlette-Frank Rd #101, Naples, FL 34102",26.15625,-81.8125,BakeryDeli,4,19,https://www.google.com/maps/place//data=!4m2!3m1!1s0x88dae191ee505917:0x6ba3e25388d3fad4?authuser=-1&hl=en&gl=us,0,1,0,0,1,34102,FL
Annie's Bake Shoppe,"Annie's Bake Shoppe, 10331 SW 54th St, Miami, FL 33165",25.71875,-80.375,BakeryGift basket store,4,3,https://www.google.com/maps/place//data=!4m2!3m1!1s0x88d9c754413f6c9d:0x1f93eff5e0ba9c16?authuser=-1&hl=en&gl=us,0,1,0,0,0,33165,FL
Hot Box,"Hot Box, 1-99 Kinkaid St, Pensacola, FL 32507",30.390625,-87.25,Restaurant,4,5,https://www.google.com/maps/place//data=!4m2!3m1!1s0x8890b9241e704667:0x3a1e565c17c00993?authuser=-1&hl=en&gl=us,1,0,0,0,1,32507,FL
Gormley's on the river | Modern cuisine in historic downtown Apalachicola Florida,"Gormley's on the river | Modern cuisine in historic downtown Apalachicola Florida, 123 Water St, Apalachicola, FL 32320",29.734375,-85.0,Modern French restaurantRestaurant,4,17,https://www.google.com/maps/place//data=!4m2!3m1!1s0x8894b5a7a7909725:0xe4687299fd288188?authuser=-1&hl=en&gl=us,1,0,0,0,1,32320,FL
Shell,"Shell, 15877 E, FL-40, Silver Springs, FL 34488",29.1875,-81.875,Gas stationATMConvenience storeRestaurant,1,5,https://www.google.com/maps/place//data=!4m2!3m1!1s0x88e635378f43352f:0xa1b53c63436fa428?authuser=-1&hl=en&gl=us,1,0,0,0,0,34488,FL
Kala' Bites & Brews,"Kala' Bites & Brews, 17100 Gulf Blvd, North Redington Beach, FL 33708",27.8125,-82.8125,BarBeer storeRestaurant,5,2,https://www.google.com/maps/place//data=!4m2!3m1!1s0x88c2fea614c52c8b:0x50e166caa05e8c0f?authuser=-1&hl=en&gl=us,1,0,0,0,1,33708,FL
Baby Food Grill & Bar,"Baby Food Grill & Bar, 203 S 21st Ave, Hollywood, FL 33020",26.015625,-80.125,Mexican restaurant,3,2,https://www.google.com/maps/place//data=!4m2!3m1!1s0x88d9ab98b5baad79:0x1a2e3f0642a55246?authuser=-1&hl=en&gl=us,1,0,0,0,0,33020,FL
Chinese Restaurant,"Chinese Restaurant, Coral Terrace, FL 33155",25.734375,-80.3125,Restaurant,5,1,https://www.google.com/maps/place//data=!4m2!3m1!1s0x88d9b86c23bb04eb:0x2a82da546b7feb1b?authuser=-1&hl=en&gl=us,1,0,0,0,1,33155,FL
Bachata Rosa,"Bachata Rosa, 887w W 29th St, Hialeah, FL 33012",25.84375,-80.3125,Restaurant,3,8,https://www.google.com/maps/place//data=!4m2!3m1!1s0x88d9ba5d65937567:0xbc27649cf513cc89?authuser=-1&hl=en&gl=us,1,0,0,0,0,33012,FL
Zampini's Bottega,"Zampini's Bottega, 510 SE 5th Ave, Fort Lauderdale, FL 33301",26.109375,-80.125,Restaurant,4,18,https://www.google.com/maps/place//data=!4m2!3m1!1s0x88d900575f0dd065:0x9b3638d2a80be4d?authuser=-1&hl=en&gl=us,1,0,0,0,1,33301,FL
Food Truck De Camino al Cielo,"Food Truck De Camino al Cielo, 3310 S Conway Rd, Orlando, FL 32812",28.5,-81.3125,Takeout Restaurant,4,8,https://www.google.com/maps/place//data=!4m2!3m1!1s0x88e765a15b829793:0x34addf6ffa1d3f77?authuser=-1&hl=en&gl=us,1,0,0,0,0,32812,FL
Choices Cafe,"Choices Cafe, 711 NW 27th Ave, Miami, FL 33125",25.78125,-80.25,Restaurant,4,45,https://www.google.com/maps/place//data=!4m2!3m1!1s0x88d9b719170a9f61:0x30d454a980f76ad3?authuser=-1&hl=en&gl=us,1,0,0,0,1,33125,FL
Bogie's Cafe,"Bogie's Cafe, 99701 Overseas Hwy, Key Largo, FL 33037",25.09375,-80.4375,American restaurant,4,8,https://www.google.com/maps/place//data=!4m2!3m1!1s0x88d769c187b52953:0xe3ace06a033182f6?authuser=-1&hl=en&gl=us,1,0,0,0,0,33037,FL
Subway,"Subway, 588 S Alafaya Trail #30, Orlando, FL 32828",28.53125,-81.1875,Sandwich shopCatererFast food restaurantTakeout RestaurantRestaurant,4,33,https://www.google.com/maps/place//data=!4m2!3m1!1s0x88e76652cd84272f:0x548abb9935d912ff?authuser=-1&hl=en&gl=us,1,0,0,0,0,32828,FL
India Diner,"India Diner, 4561 W Irlo Bronson Memorial Hwy, Kissimmee, FL 34746",28.3125,-81.4375,Indian restaurant,2,8,https://www.google.com/maps/place//data=!4m2!3m1!1s0x88dd83d661b9262f:0xbc3de0d8abe6423b?authuser=-1&hl=en&gl=us,1,0,0,0,1,34746,FL
Biscayne Backyard Barbecue,"Biscayne Backyard Barbecue, 11064 Biscayne Blvd, Miami, FL 33161",25.875,-80.1875,Restaurant,3,23,https://www.google.com/maps/place//data=!4m2!3m1!1s0x88d9b395c6179c89:0x914b0aafb453b3b5?authuser=-1&hl=en&gl=us,1,0,0,0,1,33161,FL
Chefness Bakery,"Chefness Bakery, 7160 Beracasa Way, Boca Raton, FL 33433",26.34375,-80.1875,BakeryCafeCafeteriaCake shopCupcake shopKosher grocery storeKosher restaurantPastry shopPizza restaurantWedding bakery,4,24,https://www.google.com/maps/place//data=!4m2!3m1!1s0x88d91d9e5e488c4f:0x6049fa30d0806848?authuser=-1&hl=en&gl=us,1,1,0,1,0,33433,FL
Bar 91,"Bar 91, 400 Ave of the Champions, Palm Beach Gardens, FL 33418",26.828125,-80.125,Bar & grillBarRestaurantSports bar,3,8,https://www.google.com/maps/place//data=!4m2!3m1!1s0x146c6711a70d7991:0xe478335f760c8ccc?authuser=-1&hl=en&gl=us,1,0,0,0,0,33418,FL
Crab Du Jour Cajun Seafood & Bar,"Crab Du Jour Cajun Seafood & Bar, 3201 N Miami Ave Unit 106, Miami, FL 33127",25.8125,-80.1875,Seafood restaurantBarCajun restaurantChicken wings restaurant,4,88,https://www.google.com/maps/place//data=!4m2!3m1!1s0x88d9b1f38dff4dff:0x61443de98cd9c88c?authuser=-1&hl=en&gl=us,1,0,0,0,0,33127,FL
Flour Blossom Bakery,"Flour Blossom Bakery, 1210 Capital Cir SE J, Tallahassee, FL 32301",30.4375,-84.25,Bakery,4,25,https://www.google.com/maps/place//data=!4m2!3m1!1s0x88ec5fb4bb5aee75:0x847c0eedb1b8f161?authuser=-1&hl=en&gl=us,0,1,0,0,1,32301,FL
Flock and Stock,"Flock and Stock, 615 Channelside Dr, Tampa, FL 33602",27.9375,-82.4375,Restaurant,2,52,https://www.google.com/maps/place//data=!4m2!3m1!1s0x88c2c5c515fa6e53:0xee4f630ca314fe01?authuser=-1&hl=en&gl=us,1,0,0,0,0,33602,FL
Sizzler,"Sizzler, 12195 S Apopka Vineland Rd, Orlando, FL 32819",28.46875,-81.4375,RestaurantSeafood restaurantSteak house,3,8,https://www.google.com/maps/place//data=!4m2!3m1!1s0x88dd8019b7c4167b:0x7043f86a8346dcf3?authuser=-1&hl=en&gl=us,1,0,0,0,1,32819,FL
Pi Pizza,"Pi Pizza, 409 N US Hwy 17 92, Longwood, FL 32750",28.703125,-81.3125,Restaurant,3,14,https://www.google.com/maps/place//data=!4m2!3m1!1s0x88e76d9181abf2a9:0x97194d850024543c?authuser=-1&hl=en&gl=us,1,0,0,0,1,32750,FL
Antojitos Del Caribe,"Antojitos Del Caribe, 5811 W Irlo Bronson Memorial Hwy, Kissimmee, FL 34746",28.328125,-81.5,Restaurant,3,8,https://www.google.com/maps/place//data=!4m2!3m1!1s0x88dd7f02de6ab8af:0xbab9000f15a5c0ef?authuser=-1&hl=en&gl=us,1,0,0,0,0,34746,FL
Crumbl Cookies - Beach Haven,"Crumbl Cookies - Beach Haven, 3267 Hodges Blvd #2, Jacksonville, FL 32224",30.28125,-81.4375,BakeryCookie shopDessert shop,4,756,https://www.google.com/maps/place//data=!4m2!3m1!1s0x88e44b5aa1b320fb:0xf169aafe0f050b23?authuser=-1&hl=en&gl=us,0,1,0,0,0,32224,FL
Pizza cubana& Italiana Dileo's House LLC,"Pizza cubana& Italiana Dileo's House LLC, 7300 W Flagler St, Miami, FL 33144",25.765625,-80.3125,Pizza restaurant,4,38,https://www.google.com/maps/place//data=!4m2!3m1!1s0x88d9b714af842939:0xbc6dc5c9cb27536e?authuser=-1&hl=en&gl=us,1,0,0,0,0,33144,FL
Dick's Restaurant and Bar,"Dick's Restaurant and Bar, 19581 Palm Beach Blvd, Alva, FL 33920",26.71875,-81.625,RestaurantBar,3,8,https://www.google.com/maps/place//data=!4m2!3m1!1s0x88db70f25d195ce9:0xdd082161db257728?authuser=-1&hl=en&gl=us,1,0,0,0,1,33920,FL
Celebrity Cakes,"Celebrity Cakes, 1915 NE 45th St #102, Fort Lauderdale, FL 33308",26.1875,-80.125,Wedding bakeryCake shopCookie shopCupcake shop,3,8,https://www.google.com/maps/place//data=!4m2!3m1!1s0x88d903f9a04f4b11:0xb6b5989d1f01684?authuser=-1&hl=en&gl=us,0,1,0,0,0,33308,FL
Le Troquet French Restaurant,"Le Troquet French Restaurant, 25245 Chamber of Commerce Dr, Bonita Springs, FL 34135",26.375,-81.8125,Restaurant,4,8,https://www.google.com/maps/place//data=!4m2!3m1!1s0x88db192929431de3:0x95904c639f26a3b4?authuser=-1&hl=en&gl=us,1,0,0,0,0,34135,FL
Tu esquina sabrosa,"Tu esquina sabrosa, 2255 U.S. Hwy 17-92 N, Haines City, FL 33844",28.125,-81.625,Puerto Rican restaurant,4,15,https://www.google.com/maps/place//data=!4m2!3m1!1s0x88dd738fd4ebbe91:0xe61f34790c936cc0?authuser=-1&hl=en&gl=us,1,0,0,0,0,33844,FL
Trastes,"Trastes, 323 US 17 92 Highway N, Haines City, FL 33844",28.109375,-81.625,Nuevo Latino restaurantRestaurant,5,2,https://www.google.com/maps/place//data=!4m2!3m1!1s0x88dd734f09df440d:0x868d00fdf7efd200?authuser=-1&hl=en&gl=us,1,0,0,0,1,33844,FL
Smoothielicious,"Smoothielicious, 4442 Weston Rd, Davie, FL 33331",26.0625,-80.375,Juice shopHealth food restaurantTakeout RestaurantSandwich shop,3,1,https://www.google.com/maps/place//data=!4m2!3m1!1s0x88d9a733b2f2b019:0x978cadcc23c4ba86?authuser=-1&hl=en&gl=us,1,0,0,0,1,33331,FL
Tokyo Sushi Express,"Tokyo Sushi Express, 1538 E Commercial Blvd, Oakland Park, FL 33334",26.1875,-80.125,Restaurant,4,8,https://www.google.com/maps/place//data=!4m2!3m1!1s0x88d9023b9c2ab18f:0xabc959f7dfbdf5dc?authuser=-1&hl=en&gl=us,1,0,0,0,1,33334,FL
Cajun Boil Express,"Cajun Boil Express, 14333 Beach Blvd #101, Jacksonville, FL 32250",30.28125,-81.4375,RestaurantDelivery RestaurantSeafood restaurant,5,48,https://www.google.com/maps/place//data=!4m2!3m1!1s0x88e44b7e69565ac5:0x3dfe920e1417a40c?authuser=-1&hl=en&gl=us,1,0,0,0,0,32250,FL
Buttercup Gourmet Bakery,"Buttercup Gourmet Bakery, 4122 Florida Ave S, Lakeland, FL 33813",27.984375,-81.9375,Bakery,4,25,https://www.google.com/maps/place//data=!4m2!3m1!1s0x88dd394ba8357dc3:0x6910d8806a7eb84f?authuser=-1&hl=en&gl=us,0,1,0,0,1,33813,FL
The Island Coffee,"The Island Coffee, 100694 Overseas Hwy, Key Largo, FL 33037",25.109375,-80.4375,Cuban restaurant,4,8,https://www.google.com/maps/place//data=!4m2!3m1!1s0x88d769b7897a34b9:0x729a7cbfde222660?authuser=-1&hl=en&gl=us,1,0,0,0,0,33037,FL
Cajun Crab,"Cajun Crab, 5070 US-90, Pace, FL 32571",30.609375,-87.125,Seafood restaurant,4,14,https://www.google.com/maps/place//data=!4m2!3m1!1s0x8890eff2db2544cb:0x661d1a6f60aa3201?authuser=-1&hl=en&gl=us,1,0,0,0,0,32571,FL
The Brew Spot Cafe,"The Brew Spot Cafe, 1000 NE 16th Ave, Gainesville, FL 32601",29.671875,-82.3125,American restaurantBreakfast restaurantCafeDinner theaterWine bar,3,7,https://www.google.com/maps/place//data=!4m2!3m1!1s0x88e8a40f83aa9035:0x68b279c2896c36c3?authuser=-1&hl=en&gl=us,1,0,0,0,1,32601,FL
Guilty Pleasure Baking Company Inc.,"Guilty Pleasure Baking Company Inc., 817 E New Haven Ave, Melbourne, FL 32901",28.078125,-80.625,BakeryCake shopCupcake shop,3,17,https://www.google.com/maps/place//data=!4m2!3m1!1s0x88de118c5ad9ee51:0xb16bb9c3118100a6?authuser=-1&hl=en&gl=us,0,1,0,0,1,32901,FL
33 Below Icecream,"33 Below Icecream, 12801 W Sunrise Blvd, Sunrise, FL 33323",26.15625,-80.3125,Restaurant,3,7,https://www.google.com/maps/place//data=!4m2!3m1!1s0x88d90903a8760ad5:0x696fdcc508ebaf7f?authuser=-1&hl=en&gl=us,1,0,0,0,1,33323,FL
JK Fast Food & Fruit,"JK Fast Food & Fruit, 7794 NW 44th St, Sunrise, FL 33351",26.171875,-80.25,RestaurantColombian restaurant,4,54,https://www.google.com/maps/place//data=!4m2!3m1!1s0x88d9072d30280d93:0x51fde096261af79?authuser=-1&hl=en&gl=us,1,0,0,0,0,33351,FL
Mateo's,"Mateo's, 2670-7 Rosselle St, Jacksonville, FL 32204",30.3125,-81.6875,Pizza restaurantHamburger restaurantSandwich shop,5,7,https://www.google.com/maps/place//data=!4m2!3m1!1s0x88e5b92c395839cf:0x9ad26b724a046b7e?authuser=-1&hl=en&gl=us,1,0,0,0,0,32204,FL
Mama B's Diner,"Mama B's Diner, 7651 SW State Rd 200, Ocala, FL 34476",29.09375,-82.25,American restaurant,5,5,https://www.google.com/maps/place//data=!4m2!3m1!1s0x88e879b906e0ef23:0xa598ddc276ff5bbf?authuser=-1&hl=en&gl=us,1,0,0,0,0,34476,FL
Power Meals,"Power Meals, 323 10th Ave W Unit 101, Palmetto, FL 34221",27.515625,-82.5625,Restaurant,5,8,https://www.google.com/maps/place//data=!4m2!3m1!1s0x88c317c3eabd5e2b:0x151ee05e62506180?authuser=-1&hl=en&gl=us,1,0,0,0,0,34221,FL
Michele's Cuisine,"Michele's Cuisine, 13827 NE 87th Way, Lady Lake, FL 32159",28.953125,-81.9375,Restaurant,4,5,https://www.google.com/maps/place//data=!4m2!3m1!1s0x88e7c549f488d987:0xe7502c18af7e7a6b?authuser=-1&hl=en&gl=us,1,0,0,0,1,32159,FL
Quiznos,"Quiznos, 9802 Baymeadows Rd #4, Jacksonville, FL 32256",30.21875,-81.5625,Sandwich shopCatererDeliFast food restaurantRestaurant,3,2,https://www.google.com/maps/place//data=!4m2!3m1!1s0x88e5cafa2cc609df:0x1881abd90aaa0c3?authuser=-1&hl=en&gl=us,1,0,0,0,1,32256,FL
LEE BISTRO ASIAN CUISINE,"LEE BISTRO ASIAN CUISINE, 5787 Vineland Rd, Orlando, FL 32819",28.484375,-81.4375,Asian restaurantChinese restaurantRamen restaurant,4,28,https://www.google.com/maps/place//data=!4m2!3m1!1s0x88e77f681278a0cf:0x42a1710950269c25?authuser=-1&hl=en&gl=us,1,0,0,0,0,32819,FL
Mainstay Tavern,"Mainstay Tavern, Clearwater, FL 33767",27.953125,-82.8125,Restaurant,3,14,https://www.google.com/maps/place//data=!4m2!3m1!1s0x88c2f730debd585f:0xeb36db3a693c980f?authuser=-1&hl=en&gl=us,1,0,0,0,0,33767,FL
Publix Super Market at The Market at Mirada,"Publix Super Market at The Market at Mirada, 30841 Mirada Blvd, San Antonio, FL 33576",28.328125,-82.3125,SupermarketBakeryBeer storeFloristGrocery storeSeafood marketWine store,4,27,https://www.google.com/maps/place//data=!4m2!3m1!1s0x88c2ade8b60d2c63:0xad37b53949645a73?authuser=-1&hl=en&gl=us,0,1,0,0,0,33576,FL
IDRIVE ORLANDO (International Drive Orlando),"IDRIVE ORLANDO (International Drive Orlando), 8015 International Dr #8214, Orlando, FL 32819",28.453125,-81.5,Tourist attractionDinner theaterParking garageRestaurantShopping mallTheme park,5,8,https://www.google.com/maps/place//data=!4m2!3m1!1s0x88e77f46ddbc8c89:0x775f1236f0715b94?authuser=-1&hl=en&gl=us,1,0,0,0,0,32819,FL
Palma Juice Co.,"Palma Juice Co., 8300 NE 2nd Ave, Miami, FL 33138",25.859375,-80.1875,Juice shopHealth food restaurant,4,8,https://www.google.com/maps/place//data=!4m2!3m1!1s0x88d9b1005bc3752d:0xb173e4bc55c800f1?authuser=-1&hl=en&gl=us,1,0,0,0,1,33138,FL
Papa Nose Italian Eatery,"Papa Nose Italian Eatery, 10851 SW 40th St, Miami, FL 33165",25.734375,-80.375,Italian restaurant,4,7,https://www.google.com/maps/place//data=!4m2!3m1!1s0x88d9bf5210baccbb:0x1a21766a4ff5bce6?authuser=-1&hl=en&gl=us,1,0,0,0,1,33165,FL
Icon Eatery & Bar,"Icon Eatery & Bar, 5450 Bollettieri Blvd, Bradenton, FL 34210",27.4375,-82.625,Fine dining restaurantBarNew American restaurantRestaurant,4,2,https://www.google.com/maps/place//data=!4m2!3m1!1s0x88c315593fad8df5:0x89d6b565bb32c62f?authuser=-1&hl=en&gl=us,1,0,0,0,0,34210,FL
Pasha's,"Pasha's, 1120 NW 14th St, Miami, FL 33136",25.78125,-80.1875,Mediterranean restaurantRestaurant,4,5,https://www.google.com/maps/place//data=!4m2!3m1!1s0x88d9b6c12dc5bc55:0x8ff2d900fb614b69?authuser=-1&hl=en&gl=us,1,0,0,0,1,33136,FL
Panaggio’s Fusion Bistro,"Panaggio’s Fusion Bistro, 1500 Beville Rd Ste 410, Daytona Beach, FL 32114",29.171875,-81.0625,RestaurantItalian restaurantPizza deliveryPizza restaurantPizza Takeout,4,33,https://www.google.com/maps/place//data=!4m2!3m1!1s0x88e6d904c645351d:0xb07b9d0df77b6084?authuser=-1&hl=en&gl=us,1,0,0,0,1,32114,FL
Quail Run Country Club Restaurant,"Quail Run Country Club Restaurant, 1 Forest Lakes Blvd, Naples, FL 34105",26.203125,-81.75,American restaurant,5,1,https://www.google.com/maps/place//data=!4m2!3m1!1s0x88db1e750e1c1ae1:0x1b8c84478caddbab?authuser=-1&hl=en&gl=us,1,0,0,0,0,34105,FL
Signatures7,"Signatures7, 2250 NW 2nd Ave, Miami, FL 33127",25.796875,-80.1875,Restaurant,5,1,https://www.google.com/maps/place//data=!4m2!3m1!1s0x88d9b7ec39637c5f:0x2605d817e4adc732?authuser=-1&hl=en&gl=us,1,0,0,0,0,33127,FL
Delicious Latino Restaurant,"Delicious Latino Restaurant, 504 N State Rd 7, Hollywood, FL 33021",26.015625,-80.1875,Restaurant,4,28,https://www.google.com/maps/place//data=!4m2!3m1!1s0x88d9a94040ac4fed:0xe2c177a6fc94ba0?authuser=-1&hl=en&gl=us,1,0,0,0,0,33021,FL
"DELICIOUS OF PERU, RESTAURANT","DELICIOUS OF PERU, RESTAURANT, 504 S State Rd 7, Hollywood, FL 33021",26.015625,-80.1875,Peruvian restaurant,4,8,https://www.google.com/maps/place//data=!4m2!3m1!1s0x88d9a94040a578eb:0xd01947f4367fffc0?authuser=-1&hl=en&gl=us,1,0,0,0,1,33021,FL
Store Grocery,"Store Grocery, 727 NW 111th St, Miami, FL 33168",25.875,-80.1875,Restaurant,3,18,https://www.google.com/maps/place//data=!4m2!3m1!1s0x88d9b1c015ea1f1b:0x887379498535ceb0?authuser=-1&hl=en&gl=us,1,0,0,0,0,33168,FL
Dilly's Seafood Truck at Celebration Park,"Dilly's Seafood Truck at Celebration Park, 2880 Becca Ave, Naples, FL 34112",26.125,-81.75,Seafood restaurant,4,8,https://www.google.com/maps/place//data=!4m2!3m1!1s0x88dae33bfbda83ff:0xb8247ee5005e3d24?authuser=-1&hl=en&gl=us,1,0,0,0,1,34112,FL
Sandwich Bar,"Sandwich Bar, 2432 E Robinson St, Orlando, FL 32801",28.546875,-81.375,Sandwich shopRestaurant,4,27,https://www.google.com/maps/place//data=!4m2!3m1!1s0x88e77ad07d393c57:0x23ebd5e5f4a03239?authuser=-1&hl=en&gl=us,1,0,0,0,1,32801,FL
Tacos Mexican Restaurant,"Tacos Mexican Restaurant, 39024 US-19, Tarpon Springs, FL 34689",28.125,-82.75,Mexican restaurant,4,2,https://www.google.com/maps/place//data=!4m2!3m1!1s0x88c28d5c25300001:0x860bd1bd2442afb1?authuser=-1&hl=en&gl=us,1,0,0,0,1,34689,FL
NUDO,"NUDO, Jacksonville, FL 32257",30.1875,-81.625,Restaurant,4,4,https://www.google.com/maps/place//data=!4m2!3m1!1s0x88e5c96b07c86f09:0xab846d6a6f4c8497?authuser=-1&hl=en&gl=us,1,0,0,0,1,32257,FL
Fitlife Foods Plantation,"Fitlife Foods Plantation, 1043 S University Dr, Plantation, FL 33324",26.109375,-80.25,Health food storeHealth food restaurantRestaurant,4,43,https://www.google.com/maps/place//data=!4m2!3m1!1s0x88d907944065b7cb:0xc3c8f9877b52c59e?authuser=-1&hl=en&gl=us,1,0,0,0,0,33324,FL
Nini Seafood,"Nini Seafood, 3851 NW 125th St, Miami Gardens, FL 33054",25.890625,-80.25,Seafood restaurant,4,6,https://www.google.com/maps/place//data=!4m2!3m1!1s0x88d9b010f6400001:0x9e1911a7dcca6405?authuser=-1&hl=en&gl=us,1,0,0,0,0,33054,FL
Orlando Dinner Entertainment,"Orlando Dinner Entertainment, 6400 Carrier Dr, Orlando, FL 32819",28.453125,-81.4375,Association or organizationRestaurant,4,8,https://www.google.com/maps/place//data=!4m2!3m1!1s0x88e77efef5f01409:0x7deb3a556b542eb4?authuser=-1&hl=en&gl=us,1,0,0,0,1,32819,FL
Nana's Restaurant,"Nana's Restaurant, 857 E Klosterman Rd, Tarpon Springs, FL 34689",28.125,-82.75,Restaurant,5,3,https://www.google.com/maps/place//data=!4m2!3m1!1s0x88c28d5968c8b309:0x3d6a826308284a21?authuser=-1&hl=en&gl=us,1,0,0,0,1,34689,FL
Lin's Asian Bistro,"Lin's Asian Bistro, 1075 Oakleaf Plantation Pkwy #305, Orange Park, FL 32065",30.15625,-81.8125,Chinese restaurantAsian restaurantSushi restaurant,3,18,https://www.google.com/maps/place//data=!4m2!3m1!1s0x51325acc69cdd725:0xd9eab3bc5db69212?authuser=-1&hl=en&gl=us,1,0,0,0,1,32065,FL
Marcelina’s,"Marcelina’s, 3240 SW 34th St, Ocala, FL 34474",29.15625,-82.1875,Italian restaurant,4,16,https://www.google.com/maps/place//data=!4m2!3m1!1s0x88e7d53df4afd8e5:0x2273e0070712e889?authuser=-1&hl=en&gl=us,1,0,0,0,0,34474,FL
Mo Cookies,"Mo Cookies, 685 W Tennessee St, Tallahassee, FL 32304",30.4375,-84.3125,Bakery,5,28,https://www.google.com/maps/place//data=!4m2!3m1!1s0x88ecf53cf201eaa9:0xbaff139ee2bc1522?authuser=-1&hl=en&gl=us,0,1,0,0,0,32304,FL
Canton Palace Chinese Restaurant,"Canton Palace Chinese Restaurant, 7980 SW 8th St, Miami, FL 33144",25.765625,-80.3125,Chinese restaurant,4,25,https://www.google.com/maps/place//data=!4m2!3m1!1s0x88d9b9009976b2d1:0xdb8853eabc1567cd?authuser=-1&hl=en&gl=us,1,0,0,0,0,33144,FL
MotLee's,"MotLee's, 1485 S 6th St, Macclenny, FL 32063",30.265625,-82.125,Restaurant,3,34,https://www.google.com/maps/place//data=!4m2!3m1!1s0x88e5f3c0ed112c81:0x888fe72641f1ebef?authuser=-1&hl=en&gl=us,1,0,0,0,0,32063,FL
Cape Seafood Shack,"Cape Seafood Shack, 603 Del Prado Blvd S, Cape Coral, FL 33990",26.640625,-81.9375,Restaurant,5,1,https://www.google.com/maps/place//data=!4m2!3m1!1s0x88db4147b1d9e6f3:0x943dbd10a92ba1b1?authuser=-1&hl=en&gl=us,1,0,0,0,1,33990,FL
Fresh Point Country Buffet,"Fresh Point Country Buffet, 10525 US-19, Pinellas Park, FL 33782",27.875,-82.6875,Buffet restaurant,5,2,https://www.google.com/maps/place//data=!4m2!3m1!1s0x88c2e4e34f1ed783:0x76c5da381c499d79?authuser=-1&hl=en&gl=us,1,0,0,0,1,33782,FL
Oneyda's Bakery,"Oneyda's Bakery, 600 Goodlette-Frank Rd #101, Naples, FL 34102",26.15625,-81.8125,BakeryDeli,4,19,https://www.google.com/maps/place//data=!4m2!3m1!1s0x88dae191ee505917:0x6ba3e25388d3fad4?authuser=-1&hl=en&gl=us,0,1,0,0,1,34102,FL
Annie's Bake Shoppe,"Annie's Bake Shoppe, 10331 SW 54th St, Miami, FL 33165",25.71875,-80.375,BakeryGift basket store,4,3,https://www.google.com/maps/place//data=!4m2!3m1!1s0x88d9c754413f6c9d:0x1f93eff5e0ba9c16?authuser=-1&hl=en&gl=us,0,1,0,0,0,33165,FL
Hot Box,"Hot Box, 1-99 Kinkaid St, Pensacola, FL 32507",30.390625,-87.25,Restaurant,4,5,https://www.google.com/maps/place//data=!4m2!3m1!1s0x8890b9241e704667:0x3a1e565c17c00993?authuser=-1&hl=en&gl=us,1,0,0,0,1,32507,FL
Gormley's on the river | Modern cuisine in historic downtown Apalachicola Florida,"Gormley's on the river | Modern cuisine in historic downtown Apalachicola Florida, 123 Water St, Apalachicola, FL 32320",29.734375,-85.0,Modern French restaurantRestaurant,4,17,https://www.google.com/maps/place//data=!4m2!3m1!1s0x8894b5a7a7909725:0xe4687299fd288188?authuser=-1&hl=en&gl=us,1,0,0,0,1,32320,FL
Shell,"Shell, 15877 E, FL-40, Silver Springs, FL 34488",29.1875,-81.875,Gas stationATMConvenience storeRestaurant,1,5,https://www.google.com/maps/place//data=!4m2!3m1!1s0x88e635378f43352f:0xa1b53c63436fa428?authuser=-1&hl=en&gl=us,1,0,0,0,0,34488,FL
Kala' Bites & Brews,"Kala' Bites & Brews, 17100 Gulf Blvd, North Redington Beach, FL 33708",27.8125,-82.8125,BarBeer storeRestaurant,5,2,https://www.google.com/maps/place//data=!4m2!3m1!1s0x88c2fea614c52c8b:0x50e166caa05e8c0f?authuser=-1&hl=en&gl=us,1,0,0,0,1,33708,FL
Baby Food Grill & Bar,"Baby Food Grill & Bar, 203 S 21st Ave, Hollywood, FL 33020",26.015625,-80.125,Mexican restaurant,3,2,https://www.google.com/maps/place//data=!4m2!3m1!1s0x88d9ab98b5baad79:0x1a2e3f0642a55246?authuser=-1&hl=en&gl=us,1,0,0,0,0,33020,FL
Chinese Restaurant,"Chinese Restaurant, Coral Terrace, FL 33155",25.734375,-80.3125,Restaurant,5,1,https://www.google.com/maps/place//data=!4m2!3m1!1s0x88d9b86c23bb04eb:0x2a82da546b7feb1b?authuser=-1&hl=en&gl=us,1,0,0,0,1,33155,FL
Bachata Rosa,"Bachata Rosa, 887w W 29th St, Hialeah, FL 33012",25.84375,-80.3125,Restaurant,3,8,https://www.google.com/maps/place//data=!4m2!3m1!1s0x88d9ba5d65937567:0xbc27649cf513cc89?authuser=-1&hl=en&gl=us,1,0,0,0,0,33012,FL
Zampini's Bottega,"Zampini's Bottega, 510 SE 5th Ave, Fort Lauderdale, FL 33301",26.109375,-80.125,Restaurant,4,18,https://www.google.com/maps/place//data=!4m2!3m1!1s0x88d900575f0dd065:0x9b3638d2a80be4d?authuser=-1&hl=en&gl=us,1,0,0,0,1,33301,FL
Food Truck De Camino al Cielo,"Food Truck De Camino al Cielo, 3310 S Conway Rd, Orlando, FL 32812",28.5,-81.3125,Takeout Restaurant,4,8,https://www.google.com/maps/place//data=!4m2!3m1!1s0x88e765a15b829793:0x34addf6ffa1d3f77?authuser=-1&hl=en&gl=us,1,0,0,0,0,32812,FL
Choices Cafe,"Choices Cafe, 711 NW 27th Ave, Miami, FL 33125",25.78125,-80.25,Restaurant,4,45,https://www.google.com/maps/place//data=!4m2!3m1!1s0x88d9b719170a9f61:0x30d454a980f76ad3?authuser=-1&hl=en&gl=us,1,0,0,0,1,33125,FL
Bogie's Cafe,"Bogie's Cafe, 99701 Overseas Hwy, Key Largo, FL 33037",25.09375,-80.4375,American restaurant,4,8,https://www.google.com/maps/place//data=!4m2!3m1!1s0x88d769c187b52953:0xe3ace06a033182f6?authuser=-1&hl=en&gl=us,1,0,0,0,0,33037,FL
Subway,"Subway, 588 S Alafaya Trail #30, Orlando, FL 32828",28.53125,-81.1875,Sandwich shopCatererFast food restaurantTakeout RestaurantRestaurant,4,33,https://www.google.com/maps/place//data=!4m2!3m1!1s0x88e76652cd84272f:0x548abb9935d912ff?authuser=-1&hl=en&gl=us,1,0,0,0,0,32828,FL
India Diner,"India Diner, 4561 W Irlo Bronson Memorial Hwy, Kissimmee, FL 34746",28.3125,-81.4375,Indian restaurant,2,8,https://www.google.com/maps/place//data=!4m2!3m1!1s0x88dd83d661b9262f:0xbc3de0d8abe6423b?authuser=-1&hl=en&gl=us,1,0,0,0,1,34746,FL
Biscayne Backyard Barbecue,"Biscayne Backyard Barbecue, 11064 Biscayne Blvd, Miami, FL 33161",25.875,-80.1875,Restaurant,3,23,https://www.google.com/maps/place//data=!4m2!3m1!1s0x88d9b395c6179c89:0x914b0aafb453b3b5?authuser=-1&hl=en&gl=us,1,0,0,0,1,33161,FL
Chefness Bakery,"Chefness Bakery, 7160 Beracasa Way, Boca Raton, FL 33433",26.34375,-80.1875,BakeryCafeCafeteriaCake shopCupcake shopKosher grocery storeKosher restaurantPastry shopPizza restaurantWedding bakery,4,24,https://www.google.com/maps/place//data=!4m2!3m1!1s0x88d91d9e5e488c4f:0x6049fa30d0806848?authuser=-1&hl=en&gl=us,1,1,0,1,0,33433,FL
Bar 91,"Bar 91, 400 Ave of the Champions, Palm Beach Gardens, FL 33418",26.828125,-80.125,Bar & grillBarRestaurantSports bar,3,8,https://www.google.com/maps/place//data=!4m2!3m1!1s0x146c6711a70d7991:0xe478335f760c8ccc?authuser=-1&hl=en&gl=us,1,0,0,0,0,33418,FL
Crab Du Jour Cajun Seafood & Bar,"Crab Du Jour Cajun Seafood & Bar, 3201 N Miami Ave Unit 106, Miami, FL 33127",25.8125,-80.1875,Seafood restaurantBarCajun restaurantChicken wings restaurant,4,88,https://www.google.com/maps/place//data=!4m2!3m1!1s0x88d9b1f38dff4dff:0x61443de98cd9c88c?authuser=-1&hl=en&gl=us,1,0,0,0,0,33127,FL
Flour Blossom Bakery,"Flour Blossom Bakery, 1210 Capital Cir SE J, Tallahassee, FL 32301",30.4375,-84.25,Bakery,4,25,https://www.google.com/maps/place//data=!4m2!3m1!1s0x88ec5fb4bb5aee75:0x847c0eedb1b8f161?authuser=-1&hl=en&gl=us,0,1,0,0,1,32301,FL
Flock and Stock,"Flock and Stock, 615 Channelside Dr, Tampa, FL 33602",27.9375,-82.4375,Restaurant,2,52,https://www.google.com/maps/place//data=!4m2!3m1!1s0x88c2c5c515fa6e53:0xee4f630ca314fe01?authuser=-1&hl=en&gl=us,1,0,0,0,0,33602,FL
Sizzler,"Sizzler, 12195 S Apopka Vineland Rd, Orlando, FL 32819",28.46875,-81.4375,RestaurantSeafood restaurantSteak house,3,8,https://www.google.com/maps/place//data=!4m2!3m1!1s0x88dd8019b7c4167b:0x7043f86a8346dcf3?authuser=-1&hl=en&gl=us,1,0,0,0,1,32819,FL
Pi Pizza,"Pi Pizza, 409 N US Hwy 17 92, Longwood, FL 32750",28.703125,-81.3125,Restaurant,3,14,https://www.google.com/maps/place//data=!4m2!3m1!1s0x88e76d9181abf2a9:0x97194d850024543c?authuser=-1&hl=en&gl=us,1,0,0,0,1,32750,FL
Antojitos Del Caribe,"Antojitos Del Caribe, 5811 W Irlo Bronson Memorial Hwy, Kissimmee, FL 34746",28.328125,-81.5,Restaurant,3,8,https://www.google.com/maps/place//data=!4m2!3m1!1s0x88dd7f02de6ab8af:0xbab9000f15a5c0ef?authuser=-1&hl=en&gl=us,1,0,0,0,0,34746,FL
Crumbl Cookies - Beach Haven,"Crumbl Cookies - Beach Haven, 3267 Hodges Blvd #2, Jacksonville, FL 32224",30.28125,-81.4375,BakeryCookie shopDessert shop,4,756,https://www.google.com/maps/place//data=!4m2!3m1!1s0x88e44b5aa1b320fb:0xf169aafe0f050b23?authuser=-1&hl=en&gl=us,0,1,0,0,0,32224,FL
Pizza cubana& Italiana Dileo's House LLC,"Pizza cubana& Italiana Dileo's House LLC, 7300 W Flagler St, Miami, FL 33144",25.765625,-80.3125,Pizza restaurant,4,38,https://www.google.com/maps/place//data=!4m2!3m1!1s0x88d9b714af842939:0xbc6dc5c9cb27536e?authuser=-1&hl=en&gl=us,1,0,0,0,0,33144,FL
Dick's Restaurant and Bar,"Dick's Restaurant and Bar, 19581 Palm Beach Blvd, Alva, FL 33920",26.71875,-81.625,RestaurantBar,3,8,https://www.google.com/maps/place//data=!4m2!3m1!1s0x88db70f25d195ce9:0xdd082161db257728?authuser=-1&hl=en&gl=us,1,0,0,0,1,33920,FL
Celebrity Cakes,"Celebrity Cakes, 1915 NE 45th St #102, Fort Lauderdale, FL 33308",26.1875,-80.125,Wedding bakeryCake shopCookie shopCupcake shop,3,8,https://www.google.com/maps/place//data=!4m2!3m1!1s0x88d903f9a04f4b11:0xb6b5989d1f01684?authuser=-1&hl=en&gl=us,0,1,0,0,0,33308,FL
Le Troquet French Restaurant,"Le Troquet French Restaurant, 25245 Chamber of Commerce Dr, Bonita Springs, FL 34135",26.375,-81.8125,Restaurant,4,8,https://www.google.com/maps/place//data=!4m2!3m1!1s0x88db192929431de3:0x95904c639f26a3b4?authuser=-1&hl=en&gl=us,1,0,0,0,0,34135,FL
Tu esquina sabrosa,"Tu esquina sabrosa, 2255 U.S. Hwy 17-92 N, Haines City, FL 33844",28.125,-81.625,Puerto Rican restaurant,4,15,https://www.google.com/maps/place//data=!4m2!3m1!1s0x88dd738fd4ebbe91:0xe61f34790c936cc0?authuser=-1&hl=en&gl=us,1,0,0,0,0,33844,FL
Trastes,"Trastes, 323 US 17 92 Highway N, Haines City, FL 33844",28.109375,-81.625,Nuevo Latino restaurantRestaurant,5,2,https://www.google.com/maps/place//data=!4m2!3m1!1s0x88dd734f09df440d:0x868d00fdf7efd200?authuser=-1&hl=en&gl=us,1,0,0,0,1,33844,FL
Smoothielicious,"Smoothielicious, 4442 Weston Rd, Davie, FL 33331",26.0625,-80.375,Juice shopHealth food restaurantTakeout RestaurantSandwich shop,3,1,https://www.google.com/maps/place//data=!4m2!3m1!1s0x88d9a733b2f2b019:0x978cadcc23c4ba86?authuser=-1&hl=en&gl=us,1,0,0,0,1,33331,FL
Tokyo Sushi Express,"Tokyo Sushi Express, 1538 E Commercial Blvd, Oakland Park, FL 33334",26.1875,-80.125,Restaurant,4,8,https://www.google.com/maps/place//data=!4m2!3m1!1s0x88d9023b9c2ab18f:0xabc959f7dfbdf5dc?authuser=-1&hl=en&gl=us,1,0,0,0,1,33334,FL
Cajun Boil Express,"Cajun Boil Express, 14333 Beach Blvd #101, Jacksonville, FL 32250",30.28125,-81.4375,RestaurantDelivery RestaurantSeafood restaurant,5,48,https://www.google.com/maps/place//data=!4m2!3m1!1s0x88e44b7e69565ac5:0x3dfe920e1417a40c?authuser=-1&hl=en&gl=us,1,0,0,0,0,32250,FL
Buttercup Gourmet Bakery,"Buttercup Gourmet Bakery, 4122 Florida Ave S, Lakeland, FL 33813",27.984375,-81.9375,Bakery,4,25,https://www.google.com/maps/place//data=!4m2!3m1!1s0x88dd394ba8357dc3:0x6910d8806a7eb84f?authuser=-1&hl=en&gl=us,0,1,0,0,1,33813,FL
The Island Coffee,"The Island Coffee, 100694 Overseas Hwy, Key Largo, FL 33037",25.109375,-80.4375,Cuban restaurant,4,8,https://www.google.com/maps/place//data=!4m2!3m1!1s0x88d769b7897a34b9:0x729a7cbfde222660?authuser=-1&hl=en&gl=us,1,0,0,0,0,33037,FL
Cajun Crab,"Cajun Crab, 5070 US-90, Pace, FL 32571",30.609375,-87.125,Seafood restaurant,4,14,https://www.google.com/maps/place//data=!4m2!3m1!1s0x8890eff2db2544cb:0x661d1a6f60aa3201?authuser=-1&hl=en&gl=us,1,0,0,0,0,32571,FL
The Brew Spot Cafe,"The Brew Spot Cafe, 1000 NE 16th Ave, Gainesville, FL 32601",29.671875,-82.3125,American restaurantBreakfast restaurantCafeDinner theaterWine bar,3,7,https://www.google.com/maps/place//data=!4m2!3m1!1s0x88e8a40f83aa9035:0x68b279c2896c36c3?authuser=-1&hl=en&gl=us,1,0,0,0,1,32601,FL
Guilty Pleasure Baking Company Inc.,"Guilty Pleasure Baking Company Inc., 817 E New Haven Ave, Melbourne, FL 32901",28.078125,-80.625,BakeryCake shopCupcake shop,3,17,https://www.google.com/maps/place//data=!4m2!3m1!1s0x88de118c5ad9ee51:0xb16bb9c3118100a6?authuser=-1&hl=en&gl=us,0,1,0,0,1,32901,FL
33 Below Icecream,"33 Below Icecream, 12801 W Sunrise Blvd, Sunrise, FL 33323",26.15625,-80.3125,Restaurant,3,7,https://www.google.com/maps/place//data=!4m2!3m1!1s0x88d90903a8760ad5:0x696fdcc508ebaf7f?authuser=-1&hl=en&gl=us,1,0,0,0,1,33323,FL
JK Fast Food & Fruit,"JK Fast Food & Fruit, 7794 NW 44th St, Sunrise, FL 33351",26.171875,-80.25,RestaurantColombian restaurant,4,54,https://www.google.com/maps/place//data=!4m2!3m1!1s0x88d9072d30280d93:0x51fde096261af79?authuser=-1&hl=en&gl=us,1,0,0,0,0,33351,FL
Mateo's,"Mateo's, 2670-7 Rosselle St, Jacksonville, FL 32204",30.3125,-81.6875,Pizza restaurantHamburger restaurantSandwich shop,5,7,https://www.google.com/maps/place//data=!4m2!3m1!1s0x88e5b92c395839cf:0x9ad26b724a046b7e?authuser=-1&hl=en&gl=us,1,0,0,0,0,32204,FL
Mama B's Diner,"Mama B's Diner, 7651 SW State Rd 200, Ocala, FL 34476",29.09375,-82.25,American restaurant,5,5,https://www.google.com/maps/place//data=!4m2!3m1!1s0x88e879b906e0ef23:0xa598ddc276ff5bbf?authuser=-1&hl=en&gl=us,1,0,0,0,0,34476,FL
Power Meals,"Power Meals, 323 10th Ave W Unit 101, Palmetto, FL 34221",27.515625,-82.5625,Restaurant,5,8,https://www.google.com/maps/place//data=!4m2!3m1!1s0x88c317c3eabd5e2b:0x151ee05e62506180?authuser=-1&hl=en&gl=us,1,0,0,0,0,34221,FL
Michele's Cuisine,"Michele's Cuisine, 13827 NE 87th Way, Lady Lake, FL 32159",28.953125,-81.9375,Restaurant,4,5,https://www.google.com/maps/place//data=!4m2!3m1!1s0x88e7c549f488d987:0xe7502c18af7e7a6b?authuser=-1&hl=en&gl=us,1,0,0,0,1,32159,FL
Quiznos,"Quiznos, 9802 Baymeadows Rd #4, Jacksonville, FL 32256",30.21875,-81.5625,Sandwich shopCatererDeliFast food restaurantRestaurant,3,2,https://www.google.com/maps/place//data=!4m2!3m1!1s0x88e5cafa2cc609df:0x1881abd90aaa0c3?authuser=-1&hl=en&gl=us,1,0,0,0,1,32256,FL
LEE BISTRO ASIAN CUISINE,"LEE BISTRO ASIAN CUISINE, 5787 Vineland Rd, Orlando, FL 32819",28.484375,-81.4375,Asian restaurantChinese restaurantRamen restaurant,4,28,https://www.google.com/maps/place//data=!4m2!3m1!1s0x88e77f681278a0cf:0x42a1710950269c25?authuser=-1&hl=en&gl=us,1,0,0,0,0,32819,FL
Mainstay Tavern,"Mainstay Tavern, Clearwater, FL 33767",27.953125,-82.8125,Restaurant,3,14,https://www.google.com/maps/place//data=!4m2!3m1!1s0x88c2f730debd585f:0xeb36db3a693c980f?authuser=-1&hl=en&gl=us,1,0,0,0,0,33767,FL
Publix Super Market at The Market at Mirada,"Publix Super Market at The Market at Mirada, 30841 Mirada Blvd, San Antonio, FL 33576",28.328125,-82.3125,SupermarketBakeryBeer storeFloristGrocery storeSeafood marketWine store,4,27,https://www.google.com/maps/place//data=!4m2!3m1!1s0x88c2ade8b60d2c63:0xad37b53949645a73?authuser=-1&hl=en&gl=us,0,1,0,0,0,33576,FL
IDRIVE ORLANDO (International Drive Orlando),"IDRIVE ORLANDO (International Drive Orlando), 8015 International Dr #8214, Orlando, FL 32819",28.453125,-81.5,Tourist attractionDinner theaterParking garageRestaurantShopping mallTheme park,5,8,https://www.google.com/maps/place//data=!4m2!3m1!1s0x88e77f46ddbc8c89:0x775f1236f0715b94?authuser=-1&hl=en&gl=us,1,0,0,0,0,32819,FL
Palma Juice Co.,"Palma Juice Co., 8300 NE 2nd Ave, Miami, FL 33138",25.859375,-80.1875,Juice shopHealth food restaurant,4,8,https://www.google.com/maps/place//data=!4m2!3m1!1s0x88d9b1005bc3752d:0xb173e4bc55c800f1?authuser=-1&hl=en&gl=us,1,0,0,0,1,33138,FL
Papa Nose Italian Eatery,"Papa Nose Italian Eatery, 10851 SW 40th St, Miami, FL 33165",25.734375,-80.375,Italian restaurant,4,7,https://www.google.com/maps/place//data=!4m2!3m1!1s0x88d9bf5210baccbb:0x1a21766a4ff5bce6?authuser=-1&hl=en&gl=us,1,0,0,0,1,33165,FL
Icon Eatery & Bar,"Icon Eatery & Bar, 5450 Bollettieri Blvd, Bradenton, FL 34210",27.4375,-82.625,Fine dining restaurantBarNew American restaurantRestaurant,4,2,https://www.google.com/maps/place//data=!4m2!3m1!1s0x88c315593fad8df5:0x89d6b565bb32c62f?authuser=-1&hl=en&gl=us,1,0,0,0,0,34210,FL
Pasha's,"Pasha's, 1120 NW 14th St, Miami, FL 33136",25.78125,-80.1875,Mediterranean restaurantRestaurant,4,5,https://www.google.com/maps/place//data=!4m2!3m1!1s0x88d9b6c12dc5bc55:0x8ff2d900fb614b69?authuser=-1&hl=en&gl=us,1,0,0,0,1,33136,FL
Panaggio’s Fusion Bistro,"Panaggio’s Fusion Bistro, 1500 Beville Rd Ste 410, Daytona Beach, FL 32114",29.171875,-81.0625,RestaurantItalian restaurantPizza deliveryPizza restaurantPizza Takeout,4,33,https://www.google.com/maps/place//data=!4m2!3m1!1s0x88e6d904c645351d:0xb07b9d0df77b6084?authuser=-1&hl=en&gl=us,1,0,0,0,1,32114,FL
Quail Run Country Club Restaurant,"Quail Run Country Club Restaurant, 1 Forest Lakes Blvd, Naples, FL 34105",26.203125,-81.75,American restaurant,5,1,https://www.google.com/maps/place//data=!4m2!3m1!1s0x88db1e750e1c1ae1:0x1b8c84478caddbab?authuser=-1&hl=en&gl=us,1,0,0,0,0,34105,FL
Signatures7,"Signatures7, 2250 NW 2nd Ave, Miami, FL 33127",25.796875,-80.1875,Restaurant,5,1,https://www.google.com/maps/place//data=!4m2!3m1!1s0x88d9b7ec39637c5f:0x2605d817e4adc732?authuser=-1&hl=en&gl=us,1,0,0,0,0,33127,FL
Delicious Latino Restaurant,"Delicious Latino Restaurant, 504 N State Rd 7, Hollywood, FL 33021",26.015625,-80.1875,Restaurant,4,28,https://www.google.com/maps/place//data=!4m2!3m1!1s0x88d9a94040ac4fed:0xe2c177a6fc94ba0?authuser=-1&hl=en&gl=us,1,0,0,0,0,33021,FL
"DELICIOUS OF PERU, RESTAURANT","DELICIOUS OF PERU, RESTAURANT, 504 S State Rd 7, Hollywood, FL 33021",26.015625,-80.1875,Peruvian restaurant,4,8,https://www.google.com/maps/place//data=!4m2!3m1!1s0x88d9a94040a578eb:0xd01947f4367fffc0?authuser=-1&hl=en&gl=us,1,0,0,0,1,33021,FL
Store Grocery,"Store Grocery, 727 NW 111th St, Miami, FL 33168",25.875,-80.1875,Restaurant,3,18,https://www.google.com/maps/place//data=!4m2!3m1!1s0x88d9b1c015ea1f1b:0x887379498535ceb0?authuser=-1&hl=en&gl=us,1,0,0,0,0,33168,FL
Dilly's Seafood Truck at Celebration Park,"Dilly's Seafood Truck at Celebration Park, 2880 Becca Ave, Naples, FL 34112",26.125,-81.75,Seafood restaurant,4,8,https://www.google.com/maps/place//data=!4m2!3m1!1s0x88dae33bfbda83ff:0xb8247ee5005e3d24?authuser=-1&hl=en&gl=us,1,0,0,0,1,34112,FL
Sandwich Bar,"Sandwich Bar, 2432 E Robinson St, Orlando, FL 32801",28.546875,-81.375,Sandwich shopRestaurant,4,27,https://www.google.com/maps/place//data=!4m2!3m1!1s0x88e77ad07d393c57:0x23ebd5e5f4a03239?authuser=-1&hl=en&gl=us,1,0,0,0,1,32801,FL
Tacos Mexican Restaurant,"Tacos Mexican Restaurant, 39024 US-19, Tarpon Springs, FL 34689",28.125,-82.75,Mexican restaurant,4,2,https://www.google.com/maps/place//data=!4m2!3m1!1s0x88c28d5c25300001:0x860bd1bd2442afb1?authuser=-1&hl=en&gl=us,1,0,0,0,1,34689,FL
NUDO,"NUDO, Jacksonville, FL 32257",30.1875,-81.625,Restaurant,4,4,https://www.google.com/maps/place//data=!4m2!3m1!1s0x88e5c96b07c86f09:0xab846d6a6f4c8497?authuser=-1&hl=en&gl=us,1,0,0,0,1,32257,FL
Fitlife Foods Plantation,"Fitlife Foods Plantation, 1043 S University Dr, Plantation, FL 33324",26.109375,-80.25,Health food storeHealth food restaurantRestaurant,4,43,https://www.google.com/maps/place//data=!4m2!3m1!1s0x88d907944065b7cb:0xc3c8f9877b52c59e?authuser=-1&hl=en&gl=us,1,0,0,0,0,33324,FL
Nini Seafood,"Nini Seafood, 3851 NW 125th St, Miami Gardens, FL 33054",25.890625,-80.25,Seafood restaurant,4,6,https://www.google.com/maps/place//data=!4m2!3m1!1s0x88d9b010f6400001:0x9e1911a7dcca6405?authuser=-1&hl=en&gl=us,1,0,0,0,0,33054,FL
Orlando Dinner Entertainment,"Orlando Dinner Entertainment, 6400 Carrier Dr, Orlando, FL 32819",28.453125,-81.4375,Association or organizationRestaurant,4,8,https://www.google.com/maps/place//data=!4m2!3m1!1s0x88e77efef5f01409:0x7deb3a556b542eb4?authuser=-1&hl=en&gl=us,1,0,0,0,1,32819,FL
Nana's Restaurant,"Nana's Restaurant, 857 E Klosterman Rd, Tarpon Springs, FL 34689",28.125,-82.75,Restaurant,5,3,https://www.google.com/maps/place//data=!4m2!3m1!1s0x88c28d5968c8b309:0x3d6a826308284a21?authuser=-1&hl=en&gl=us,1,0,0,0,1,34689,FL
Lin's Asian Bistro,"Lin's Asian Bistro, 1075 Oakleaf Plantation Pkwy #305, Orange Park, FL 32065",30.15625,-81.8125,Chinese restaurantAsian restaurantSushi restaurant,3,18,https://www.google.com/maps/place//data=!4m2!3m1!1s0x51325acc69cdd725:0xd9eab3bc5db69212?authuser=-1&hl=en&gl=us,1,0,0,0,1,32065,FL
Marcelina’s,"Marcelina’s, 3240 SW 34th St, Ocala, FL 34474",29.15625,-82.1875,Italian restaurant,4,16,https://www.google.com/maps/place//data=!4m2!3m1!1s0x88e7d53df4afd8e5:0x2273e0070712e889?authuser=-1&hl=en&gl=us,1,0,0,0,0,34474,FL
Mo Cookies,"Mo Cookies, 685 W Tennessee St, Tallahassee, FL 32304",30.4375,-84.3125,Bakery,5,28,https://www.google.com/maps/place//data=!4m2!3m1!1s0x88ecf53cf201eaa9:0xbaff139ee2bc1522?authuser=-1&hl=en&gl=us,0,1,0,0,0,32304,FL
Canton Palace Chinese Restaurant,"Canton Palace Chinese Restaurant, 7980 SW 8th St, Miami, FL 33144",25.765625,-80.3125,Chinese restaurant,4,25,https://www.google.com/maps/place//data=!4m2!3m1!1s0x88d9b9009976b2d1:0xdb8853eabc1567cd?authuser=-1&hl=en&gl=us,1,0,0,0,0,33144,FL
MotLee's,"MotLee's, 1485 S 6th St, Macclenny, FL 32063",30.265625,-82.125,Restaurant,3,34,https://www.google.com/maps/place//data=!4m2!3m1!1s0x88e5f3c0ed112c81:0x888fe72641f1ebef?authuser=-1&hl=en&gl=us,1,0,0,0,0,32063,FL
Pepperidge Farm,"Pepperidge Farm, 3826 E Gulf to Lake Hwy, Inverness, FL 34453",28.84375,-82.375,Wholesale bakeryBakery,4,4,https://www.google.com/maps/place//data=!4m2!3m1!1s0x88e872b8df904ead:0xaf3a84252abf9854?authuser=-1&hl=en&gl=us,0,1,0,0,1,34453,FL
Gold Garden,"Gold Garden, 101 New Market Rd W, Immokalee, FL 34142",26.421875,-81.4375,Chinese restaurant,4,8,https://www.google.com/maps/place//data=!4m2!3m1!1s0x88dba513539ca3df:0x51be7c07269aac5f?authuser=-1&hl=en&gl=us,1,0,0,0,0,34142,FL
Ruby Tuesday,"Ruby Tuesday, Terminal B 1 Airport Blvd Gates 30-59, Airside 3, Orlando, FL 32827",28.421875,-81.3125,American restaurant,2,8,https://www.google.com/maps/place//data=!4m2!3m1!1s0x88e76360bfb684ef:0x4456017926297691?authuser=-1&hl=en&gl=us,1,0,0,0,1,32827,FL
Mulligan's Grill,"Mulligan's Grill, 2300 Clubhouse Dr, Rockledge, FL 32955",28.28125,-80.75,Restaurant,5,1,https://www.google.com/maps/place//data=!4m2!3m1!1s0x88de0150f06e7bf7:0xc2337846e67d975d?authuser=-1&hl=en&gl=us,1,0,0,0,1,32955,FL
Domino's Pizza,"Domino's Pizza, 3000 NW 83 St Bldg R, Gainesville, FL 32606",29.6875,-82.4375,Pizza deliveryDelivery RestaurantTakeout RestaurantPizza restaurantPizza Takeout,3,15,https://www.google.com/maps/place//data=!4m2!3m1!1s0x88e8bb764b40114f:0xaec41d838f6bc69a?authuser=-1&hl=en&gl=us,1,0,0,0,1,32606,FL
Amazonica,"Amazonica, 180 Crandon Blvd, Key Biscayne, FL 33149",25.703125,-80.1875,Restaurant,4,6,https://www.google.com/maps/place//data=!4m2!3m1!1s0x88d9cb517283f389:0xc3f46b9798034d2b?authuser=-1&hl=en&gl=us,1,0,0,0,0,33149,FL
It's Just Wings,"It's Just Wings, 955 N Wickham Rd, Melbourne, FL 32935",28.125,-80.6875,Chicken wings restaurantChicken restaurantRestaurant,4,8,https://www.google.com/maps/place//data=!4m2!3m1!1s0x88de0fd613762f17:0x32f7e0655e3ef18f?authuser=-1&hl=en&gl=us,1,0,0,0,0,32935,FL
Le Macaron,"Le Macaron, 3015 Grand Ave, Miami, FL 33133",25.734375,-80.25,Pastry shop,5,8,https://www.google.com/maps/place//data=!4m2!3m1!1s0x88d9b7cf73090b61:0x1ccceef8f28df230?authuser=-1&hl=en&gl=us,0,0,0,1,1,33133,FL
Kono Pizza,"Kono Pizza, The Florida Mall, 8001 S Orange Blossom Trl Unit K 126, Orlando, FL 32809",28.453125,-81.375,Pizza restaurant,3,13,https://www.google.com/maps/place//data=!4m2!3m1!1s0x88e77db299023b7b:0xbc4a862dc1dc2deb?authuser=-1&hl=en&gl=us,1,0,0,0,1,32809,FL
Pizza Hut Express,"Pizza Hut Express, 2000 SW College Rd, Ocala, FL 34474",29.171875,-82.1875,Pizza restaurantPizza Takeout,4,8,https://www.google.com/maps/place//data=!4m2!3m1!1s0x88e7d4c5b751c41d:0xca8ed443fc4d8ef8?authuser=-1&hl=en&gl=us,1,0,0,0,1,34474,FL
Villa Fresh Italian Kitchen,"Villa Fresh Italian Kitchen, Florida Turnpike Milepost 144, Fort Pierce, FL 34984",27.296875,-80.375,Pizza restaurantCatererDelivery serviceItalian restaurantPasta shopRestaurantSalad shop,1,18,https://www.google.com/maps/place//data=!4m2!3m1!1s0x88deebfba1ba405b:0xc20d037e6bcc97d2?authuser=-1&hl=en&gl=us,1,0,0,0,0,34984,FL
Shell,"Shell, 900 Kings Hwy, Port Charlotte, FL 33980",27.015625,-82.0625,Gas stationATMConvenience storeRestaurant,3,24,https://www.google.com/maps/place//data=!4m2!3m1!1s0x88dca899d53d71bb:0x402cf932eeaa4ab0?authuser=-1&hl=en&gl=us,1,0,0,0,1,33980,FL
Nestle Toll House Cafe by Chip,"Nestle Toll House Cafe by Chip, 8001 S Orange Blossom Trl #1206, Orlando, FL 32809",28.453125,-81.375,CafeBakeryCoffee shopDessert shopIce cream shopSandwich shop,3,16,https://www.google.com/maps/place//data=!4m2!3m1!1s0x88e77dad19c83825:0xda92ae15ae2b7920?authuser=-1&hl=en&gl=us,0,1,0,0,0,32809,FL
7-Eleven - Closed,"7-Eleven - Closed, 1778 Blanding Blvd, Middleburg, FL 32068",30.109375,-81.8125,Convenience storeBakeryBeer storeCandy storeCoffee shopFood products supplierGas stationSnack barTobacco shopWine store,3,8,https://www.google.com/maps/place//data=!4m2!3m1!1s0x88e5c2df3d36b9e5:0x592e0a1ef8db8bc1?authuser=-1&hl=en&gl=us,0,1,0,0,1,32068,FL
Lenny's Sub Shop,"Lenny's Sub Shop, 5701 W Waters Ave, Tampa, FL 33634",28.03125,-82.5625,American restaurantBox lunch supplierCateringDeliDelivery RestaurantProfessional services,1,1,https://www.google.com/maps/place//data=!4m2!3m1!1s0x88c2c1ea8f4404f9:0xc7ebf2a550f8869d?authuser=-1&hl=en&gl=us,1,0,0,0,1,33634,FL
Bennigan's,"Bennigan's, 615 Channelside Dr #5942, Tampa, FL 33602",27.9375,-82.4375,Restaurant,2,1,https://www.google.com/maps/place//data=!4m2!3m1!1s0x88c2c4f199418f8f:0x610540c2747e67a6?authuser=-1&hl=en&gl=us,1,0,0,0,1,33602,FL
Wendy's,"Wendy's, 6630 N State Rd 7, Coconut Creek, FL 33073",26.3125,-80.1875,Fast food restaurantBreakfast restaurant,2,18,https://www.google.com/maps/place//data=!4m2!3m1!1s0x88d91ba927342cb5:0xf41411b62d57a38d?authuser=-1&hl=en&gl=us,1,0,0,0,0,33073,FL
SUBWAY®Restaurants,"SUBWAY®Restaurants, 252 Towne Center Cir, Sanford, FL 32771",28.796875,-81.3125,RestaurantCatererFast food restaurantSandwich shop,4,3,https://www.google.com/maps/place//data=!4m2!3m1!1s0x88e70d7d46700a23:0x8a9191a6c55c84fc?authuser=-1&hl=en&gl=us,1,0,0,0,1,32771,FL
Joe's Crab Shack,"Joe's Crab Shack, 4659 W 1st St, Sanford, FL 32771",28.8125,-81.3125,Seafood restaurantBarRestaurant,3,55,https://www.google.com/maps/place//data=!4m2!3m1!1s0x88e71286d860ae23:0x8f1e6c4ea94674a6?authuser=-1&hl=en&gl=us,1,0,0,0,1,32771,FL
Burger King,"Burger King, 13790 Walsingham Rd, Largo, FL 33774",27.875,-82.8125,Fast food restaurantAmerican restaurantBreakfast restaurantHamburger restaurantRestaurant,2,18,https://www.google.com/maps/place//data=!4m2!3m1!1s0x88c2f9828dba2ff1:0xd5adba7afc97afde?authuser=-1&hl=en&gl=us,1,0,0,0,1,33774,FL
Del Frisco's Grille,"Del Frisco's Grille, 340 Royal Poinciana Way #300, Palm Beach, FL 33480",26.71875,-80.0625,American restaurantBarSeafood restaurantSteak house,5,8,https://www.google.com/maps/place//data=!4m2!3m1!1s0x88d8d69ac8872eed:0x27b6361453f3fee4?authuser=-1&hl=en&gl=us,1,0,0,0,1,33480,FL
Lucky's Pizzeria,"Lucky's Pizzeria, 901 S 22nd St, Tampa, FL 33605",27.9375,-82.4375,Pizza restaurant,2,6,https://www.google.com/maps/place//data=!4m2!3m1!1s0x88c2c4fc54060d15:0x6dcf58b782179cc?authuser=-1&hl=en&gl=us,1,0,0,0,1,33605,FL
Shell,"Shell, 34920 Emerald Coast Pkwy, Destin, FL 32541",30.390625,-86.4375,Gas stationATMCar washConvenience storeRestaurant,2,7,https://www.google.com/maps/place//data=!4m2!3m1!1s0x8891435637927f6f:0x5d4f0358f3706bc9?authuser=-1&hl=en&gl=us,1,0,0,0,1,32541,FL
La Sombra,"La Sombra, 1010 Collins Ct, Miami Beach, FL 33139",25.78125,-80.125,Restaurant,5,1,https://www.google.com/maps/place//data=!4m2!3m1!1s0x88d9b5acfd274ec1:0xa9f7ee30f212759b?authuser=-1&hl=en&gl=us,1,0,0,0,1,33139,FL
BurgerFi,"BurgerFi, 630 Atlantic Blvd Suite 628, Neptune Beach, FL 32266",30.328125,-81.375,Hamburger restaurantAmerican restaurantBarFast food restaurantHot dog restaurantIce cream shopLunch restaurantTakeout RestaurantRestaurant,3,35,https://www.google.com/maps/place//data=!4m2!3m1!1s0x88e449a265786841:0x95b13b166861dc54?authuser=-1&hl=en&gl=us,1,0,0,0,0,32266,FL
The Wing Experience,"The Wing Experience, 21733 FL-7 Located in Smokey Bones, Boca Raton, FL 33428",26.359375,-80.1875,Chicken wings restaurant,2,8,https://www.google.com/maps/place//data=!4m2!3m1!1s0x88d91b1ac730fe27:0xad0febfb3340564e?authuser=-1&hl=en&gl=us,1,0,0,0,0,33428,FL
Bimbo Bakeries USA,"Bimbo Bakeries USA, 2744 Edison Ave Unit 1 Warehouse 3, Fort Myers, FL 33916",26.625,-81.875,WarehouseBakery,4,8,https://www.google.com/maps/place//data=!4m2!3m1!1s0x88db6a72db1fff33:0xe1fed697494e72ee?authuser=-1&hl=en&gl=us,0,1,0,0,1,33916,FL
Quiznos,"Quiznos, 2490 SW 17th Ave, Miami, FL 33145",25.75,-80.25,Sandwich shopCatererDeliFast food restaurantRestaurant,3,8,https://www.google.com/maps/place//data=!4m2!3m1!1s0x88d9b64fee5193ab:0x86da272b8d1aa234?authuser=-1&hl=en&gl=us,1,0,0,0,1,33145,FL
Tienda El Castillo,"Tienda El Castillo, 1315 Lane Ave S, Jacksonville, FL 32205",30.296875,-81.75,RestaurantBakeryBreakfast restaurantBurrito restaurantCandy storeConvenience storeGrocery storeSpanish restaurantTaco restaurantTobacco shop,3,38,https://www.google.com/maps/place//data=!4m2!3m1!1s0x88e5b8e92b6cc247:0xf3623525c87b15ac?authuser=-1&hl=en&gl=us,1,1,0,0,0,32205,FL
Antojitos Mexicanos,"Antojitos Mexicanos, 6118 S Dale Mabry Hwy, Tampa, FL 33611",27.875,-82.5,Mexican restaurant,4,35,https://www.google.com/maps/place//data=!4m2!3m1!1s0x88c2dce8cca88bf1:0x66477eabbac58ab9?authuser=-1&hl=en&gl=us,1,0,0,0,0,33611,FL
Roadside Cafe,"Roadside Cafe, 6550 N Orange Blossom Trail, Mt Dora, FL 32757",28.78125,-81.625,American restaurant,4,15,https://www.google.com/maps/place//data=!4m2!3m1!1s0x88e798a20afd405d:0x1fd111bdb18c2c95?authuser=-1&hl=en&gl=us,1,0,0,0,0,32757,FL
Subway,"Subway, 1865 Hwy 70 West, Okeechobee, FL 34972",27.25,-80.875,Sandwich shopCatererFast food restaurantTakeout RestaurantRestaurant,4,18,https://www.google.com/maps/place//data=!4m2!3m1!1s0x88dc1f86a88dc809:0x13c0c1bd2c1418c2?authuser=-1&hl=en&gl=us,1,0,0,0,0,34972,FL
Elevation Burger,"Elevation Burger, 9902 Gulf Coast Main St, Fort Myers, FL 33913",26.484375,-81.8125,Hamburger restaurantAmerican restaurantFast food restaurantOrganic restaurant,4,3,https://www.google.com/maps/place//data=!4m2!3m1!1s0x88db140d80b12157:0x473267e53cc35407?authuser=-1&hl=en&gl=us,1,0,0,0,1,33913,FL
Subway Restaurants,"Subway Restaurants, 817 E Bloomingdale Ave Unit 1017 Bloomingdale, Square, Brandon, FL 33511",27.890625,-82.25,Sandwich shopCatererFast food restaurantRestaurant,3,26,https://www.google.com/maps/place//data=!4m2!3m1!1s0x88c2d2779608fa4b:0xbd9be2942baa3b9a?authuser=-1&hl=en&gl=us,1,0,0,0,1,33511,FL
Subway,"Subway, 1395 Brickell Ave Suite 160, Miami, FL 33131",25.765625,-80.1875,Sandwich shopFast food restaurantTakeout RestaurantRestaurant,3,27,https://www.google.com/maps/place//data=!4m2!3m1!1s0x88d9b6811a7761f5:0xf3d18ce005b495a0?authuser=-1&hl=en&gl=us,1,0,0,0,0,33131,FL
El Burro Loco,"El Burro Loco, 711 W Indiantown Rd, Jupiter, FL 33458",26.9375,-80.125,Mexican restaurantBurrito restaurantLatin American restaurantTaco restaurant,4,28,https://www.google.com/maps/place//data=!4m2!3m1!1s0x88ded61baa632e43:0x301a7c518f2fe648?authuser=-1&hl=en&gl=us,1,0,0,0,0,33458,FL
Chinese Restaurant,"Chinese Restaurant, 125 Margate Ct, Margate, FL 33063",26.234375,-80.1875,Chinese restaurant,5,2,https://www.google.com/maps/place//data=!4m2!3m1!1s0x88d9048c102c1f01:0x6373c2b5bdb3cebc?authuser=-1&hl=en&gl=us,1,0,0,0,0,33063,FL
Plum Tree,"Plum Tree, 3306 Canoe Creek Rd, St Cloud, FL 34772",28.203125,-81.3125,Chinese restaurant,3,18,https://www.google.com/maps/place//data=!4m2!3m1!1s0x88dd91d259e24089:0x178289b6adb4d03e?authuser=-1&hl=en&gl=us,1,0,0,0,1,34772,FL
Sushigami,"Sushigami, 8001 S Orange Blossom Trail, Orlando, FL 32809",28.453125,-81.375,Sushi restaurant,3,38,https://www.google.com/maps/place//data=!4m2!3m1!1s0x88e77db2a2a62e3d:0x9e8edc4fe26ffaa4?authuser=-1&hl=en&gl=us,1,0,0,0,0,32809,FL
Red Chopsticks,"Red Chopsticks, 4027 Hood Rd, Palm Beach Gardens, FL 33410",26.859375,-80.125,Restaurant,3,8,https://www.google.com/maps/place//data=!4m2!3m1!1s0x88df2a826eb8e985:0xc0dfe494e021ead2?authuser=-1&hl=en&gl=us,1,0,0,0,1,33410,FL
Subway,"Subway, 1870 9th St N Fc9, Naples, FL 34102",26.171875,-81.8125,Sandwich shopCatererFast food restaurantTakeout RestaurantRestaurant,3,46,https://www.google.com/maps/place//data=!4m2!3m1!1s0x88dae1e9c04de3e7:0x7543cac1b9b0829b?authuser=-1&hl=en&gl=us,1,0,0,0,0,34102,FL
Cookies In Bloom,"Cookies In Bloom, 1408 N Killian Dr # 104, Lake Park, FL 33403",26.8125,-80.0625,Bakery,4,3,https://www.google.com/maps/place//data=!4m2!3m1!1s0x88d8d60930937561:0xbebb222e53fc9a2d?authuser=-1&hl=en&gl=us,0,1,0,0,0,33403,FL
Amsterdam Falafelshop,"Amsterdam Falafelshop, 1522 Washington Ave, Miami Beach, FL 33139",25.78125,-80.125,Restaurant,4,26,https://www.google.com/maps/place//data=!4m2!3m1!1s0x88d9b485560eaca3:0x8ae8923733960bd1?authuser=-1&hl=en&gl=us,1,0,0,0,1,33139,FL
Natural Chicken Grill,"Natural Chicken Grill, 13800 SW 8th St, Miami, FL 33184",25.765625,-80.4375,Fast food restaurant,2,3,https://www.google.com/maps/place//data=!4m2!3m1!1s0x88d9bfa57727df51:0xb87f30c516923a1f?authuser=-1&hl=en&gl=us,1,0,0,0,1,33184,FL
Five Guys,"Five Guys, 459 Brandon Town Center Dr, Brandon, FL 33511",27.9375,-82.3125,Fast food restaurantAmerican restaurantFamily restaurantHamburger restaurantHot dog restaurantTakeout RestaurantRestaurant,3,4,https://www.google.com/maps/place//data=!4m2!3m1!1s0x88c2ce42c1adf291:0xfbc73856b669b8b0?authuser=-1&hl=en&gl=us,1,0,0,0,1,33511,FL
Sloppy Pelican,"Sloppy Pelican, 677 75th Ave, St Pete Beach, FL 33706",27.734375,-82.75,Restaurant,3,17,https://www.google.com/maps/place//data=!4m2!3m1!1s0x88c2fd5dd7d2efad:0xe7939d4e983a7e88?authuser=-1&hl=en&gl=us,1,0,0,0,1,33706,FL
Sbarro,"Sbarro, 1451 Ocean Dr Unit 102, Miami Beach, FL 33139",25.78125,-80.125,Pizza restaurantItalian restaurantTakeout RestaurantRestaurant,3,2,https://www.google.com/maps/place//data=!4m2!3m1!1s0x88d9b535d41add47:0x734d7577af403235?authuser=-1&hl=en&gl=us,1,0,0,0,1,33139,FL
Papa John's Pizza,"Papa John's Pizza, 1131 W University Ave, Gainesville, FL 32601",29.65625,-82.3125,Pizza deliveryPizza restaurantPizza Takeout,3,18,https://www.google.com/maps/place//data=!4m2!3m1!1s0x88e8a385ae09e749:0x6855b972aec8b538?authuser=-1&hl=en&gl=us,1,0,0,0,1,32601,FL
It's Just Wings,"It's Just Wings, 2988 NW Federal Hwy, Jensen Beach, FL 34957",27.25,-80.25,Chicken wings restaurantChicken restaurantRestaurant,4,6,https://www.google.com/maps/place//data=!4m2!3m1!1s0x88dee78242dea2d7:0x50cb3c8b619fa829?authuser=-1&hl=en&gl=us,1,0,0,0,0,34957,FL
El Cubano Restaurant,"El Cubano Restaurant, 205 W Main St, Immokalee, FL 34142",26.421875,-81.4375,Cuban restaurant,4,35,https://www.google.com/maps/place//data=!4m2!3m1!1s0x88dba422e400d197:0xac1344bf887c6265?authuser=-1&hl=en&gl=us,1,0,0,0,1,34142,FL
Daily's and Daily's Dash,"Daily's and Daily's Dash, 3973 Hendricks Ave, Jacksonville, FL 32207",30.28125,-81.625,Convenience storeATMDeliGas stationRestaurant,3,35,https://www.google.com/maps/place//data=!4m2!3m1!1s0x88e5b7ca5390c319:0x3635140951c87767?authuser=-1&hl=en&gl=us,1,0,0,0,0,32207,FL
Great American Cookies,"Great American Cookies, 5100 N 9th Ave Space H-821, Pensacola, FL 32504",30.46875,-87.1875,Cookie shopBakeryCake shopRestaurant,3,8,https://www.google.com/maps/place//data=!4m2!3m1!1s0x8890c06b54b4762d:0x2d84d7eaa6d1911d?authuser=-1&hl=en&gl=us,1,1,0,0,0,32504,FL
Pico de Gallo,"Pico de Gallo, 226 W Alfred St, Tavares, FL 32778",28.796875,-81.75,RestaurantMexican restaurant,4,8,https://www.google.com/maps/place//data=!4m2!3m1!1s0x88e7bd77516ac86b:0xe99c2c437da64d78?authuser=-1&hl=en&gl=us,1,0,0,0,1,32778,FL
Hobart Service,"Hobart Service, 5424 W Waters Ave, Tampa, FL 33634",28.03125,-82.5625,Appliance repair serviceAppliance parts supplierKitchen supply storeRestaurant supply store,3,8,https://www.google.com/maps/place//data=!4m2!3m1!1s0x88c2c195e846798b:0xcdad168de0b75427?authuser=-1&hl=en&gl=us,1,0,0,0,0,33634,FL
Dunkin,"Dunkin, 13306 S Orange Blossom Trl In Speedway, Orlando, FL 32837",28.375,-81.375,Coffee shopBagel shopBakeryBreakfast restaurantDonut shopFast food restaurantTakeout Restaurant,3,18,https://www.google.com/maps/place//data=!4m2!3m1!1s0x88dd87157364818d:0x407f13ba246683f4?authuser=-1&hl=en&gl=us,1,1,0,0,1,32837,FL
Rogers Market,"Rogers Market, 1135 S Beneva Rd, Sarasota, FL 34232",27.328125,-82.5,Convenience storeBarbecue restaurantCoffee shopDeliGas stationRestaurant,4,14,https://www.google.com/maps/place//data=!4m2!3m1!1s0x88c341ec0fb05f57:0x708c4ad0ace116c1?authuser=-1&hl=en&gl=us,1,0,0,0,0,34232,FL
Villa Italian Kitchen,"Villa Italian Kitchen, 2382 Grand Cypress Dr Sp 989, Lutz, FL 33559",28.1875,-82.375,Pizza restaurantCatererItalian restaurantPasta shopRestaurantSalad shop,3,38,https://www.google.com/maps/place//data=!4m2!3m1!1s0x88c2ba07a7d66bcb:0x308618362f080187?authuser=-1&hl=en&gl=us,1,0,0,0,0,33559,FL
Krispy Krunchy Chicken,"Krispy Krunchy Chicken, 2001 Rio De Janeiro Ave, Punta Gorda, FL 33983",27.0,-82.0,Restaurant,4,18,https://www.google.com/maps/place//data=!4m2!3m1!1s0x88dca649c111cf5d:0xa402c28e0319338e?authuser=-1&hl=en&gl=us,1,0,0,0,0,33983,FL
BJ's,"BJ's, 2675 SW 69th Ct, Miami, FL 33155",25.75,-80.3125,Bakery,4,8,https://www.google.com/maps/place//data=!4m2!3m1!1s0x88d9b84325bddd9d:0x8fc8f6a8e6d40251?authuser=-1&hl=en&gl=us,0,1,0,0,0,33155,FL
The Chef,"The Chef, 13452 Biscayne Blvd, North Miami, FL 33181",25.90625,-80.1875,Restaurant,4,27,https://www.google.com/maps/place//data=!4m2!3m1!1s0x88d9ad228e5de88b:0x2c5dd9312c713e18?authuser=-1&hl=en&gl=us,1,0,0,0,0,33181,FL
Tossed,"Tossed, 6000 Glades Rd, Boca Raton, FL 33431",26.359375,-80.125,Salad shopRestaurant,3,18,https://www.google.com/maps/place//data=!4m2!3m1!1s0x88d91e79b91e3bfb:0x98c81dce01a6f371?authuser=-1&hl=en&gl=us,1,0,0,0,0,33431,FL
Chester Fried Chicken,"Chester Fried Chicken, 17309 US-27, Lake Wales, FL 33853",27.875,-81.5625,Restaurant,3,8,https://www.google.com/maps/place//data=!4m2!3m1!1s0x88dd09cafd7392eb:0x1cb1497abf0b11cc?authuser=-1&hl=en&gl=us,1,0,0,0,0,33853,FL
Wawa,"Wawa, 17700 US-441, Mt Dora, FL 32757",28.828125,-81.6875,Convenience storeBreakfast restaurantCafeCandy storeCheesesteak restaurantCoffee shopFast food restaurantHoagie restaurantSandwich shopTobacco shop,3,25,https://www.google.com/maps/place//data=!4m2!3m1!1s0x88e7a3b75d105025:0x21236c61b77fea4d?authuser=-1&hl=en&gl=us,1,0,0,0,0,32757,FL
The Porch Restaurant,"The Porch Restaurant, 9707 Gulf Dr, Anna Maria, FL 34216",27.53125,-82.75,RestaurantFine dining restaurant,5,28,https://www.google.com/maps/place//data=!4m2!3m1!1s0x88c311aaa7802495:0xc8b87583d84f51b8?authuser=-1&hl=en&gl=us,1,0,0,0,0,34216,FL
Eli's Cafe,"Eli's Cafe, 2655 N Le Jeune Rd, Coral Gables, FL 33134",25.75,-80.25,Breakfast restaurantDelivery Restaurant,4,46,https://www.google.com/maps/place//data=!4m2!3m1!1s0x88d9b790fc10a46b:0x3ef359c0cebc4e74?authuser=-1&hl=en&gl=us,1,0,0,0,0,33134,FL
CLOSED Hungry Howie's,"CLOSED Hungry Howie's, 1660 S Congress Ave #7, Boynton Beach, FL 33426",26.515625,-80.0625,Pizza restaurantRestaurant,4,38,https://www.google.com/maps/place//data=!4m2!3m1!1s0x88d8df651f074ff7:0xe10096876adbe6ac?authuser=-1&hl=en&gl=us,1,0,0,0,1,33426,FL
Wendy's,"Wendy's, 4713 S Flamingo Rd, Cooper City, FL 33330",26.0625,-80.3125,Fast food restaurantHamburger restaurantRestaurant,3,7,https://www.google.com/maps/place//data=!4m2!3m1!1s0x88d9a7a43fda1699:0x23a1b2f0e42ce91b?authuser=-1&hl=en&gl=us,1,0,0,0,1,33330,FL
Chart House - CLOSED,"Chart House - CLOSED, 51 Charthouse Dr, Miami, FL 33133",25.734375,-80.25,RestaurantAmerican restaurantBanquet hallFine dining restaurantSeafood restaurantSteak house,3,26,https://www.google.com/maps/place//data=!4m2!3m1!1s0x88d9b7ccc71589f3:0x8c2e01f74a939004?authuser=-1&hl=en&gl=us,1,0,0,0,1,33133,FL
Taqueria Michoacan,"Taqueria Michoacan, 2 W Frostproof Rd, Frostproof, FL 33843",27.734375,-81.5625,Restaurant,4,8,https://www.google.com/maps/place//data=!4m2!3m1!1s0x88dd01cb3c736cc3:0x72f201f2242ba22a?authuser=-1&hl=en&gl=us,1,0,0,0,0,33843,FL
Subway,"Subway, 2863 D W Sunrise Blvd, Fort Lauderdale, FL 33311",26.140625,-80.1875,Sandwich shopCatererFast food restaurantTakeout RestaurantRestaurant,3,67,https://www.google.com/maps/place//data=!4m2!3m1!1s0x88d9012935620241:0xb3a9b5b0671e51a5?authuser=-1&hl=en&gl=us,1,0,0,0,0,33311,FL
Shell,"Shell, 135 E, FL-46, Geneva, FL 32732",28.734375,-81.125,Gas stationATMConvenience storeRestaurant,4,1,https://www.google.com/maps/place//data=!4m2!3m1!1s0x88e7408ba01d4c05:0x1c96b753adbd7c5d?authuser=-1&hl=en&gl=us,1,0,0,0,0,32732,FL
Restaurant,"Restaurant, 1187 Florida Mall Ave, Orlando, FL 32809",28.453125,-81.375,Restaurant,5,1,https://www.google.com/maps/place//data=!4m2!3m1!1s0x88e77c4d63a531f1:0x63096b8f5ce9d5bf?authuser=-1&hl=en&gl=us,1,0,0,0,1,32809,FL
Dunkin,"Dunkin, Bjs Wholesale Club, 5100 NW 9th Ave, Fort Lauderdale, FL 33309",26.1875,-80.125,Coffee shopBagel shopBakeryBreakfast restaurantDonut shopFast food restaurantTakeout Restaurant,3,4,https://www.google.com/maps/place//data=!4m2!3m1!1s0x88d903cf822a3685:0x743768f96e1fb927?authuser=-1&hl=en&gl=us,1,1,0,0,1,33309,FL
Maoz Vegetarian,"Maoz Vegetarian, 1657 Washington Ave, Miami Beach, FL 33139",25.796875,-80.125,Vegetarian restaurantFalafel restaurantFast food restaurantMiddle Eastern restaurantSalad shop,4,18,https://www.google.com/maps/place//data=!4m2!3m1!1s0x88d9b484d56a788b:0x520d2e302dd0027d?authuser=-1&hl=en&gl=us,1,0,0,0,1,33139,FL
China Taste,"China Taste, 1314 S Tamiami Trail, Osprey, FL 34229",27.171875,-82.5,Restaurant,4,18,https://www.google.com/maps/place//data=!4m2!3m1!1s0x88c343e4ecb8b1c7:0x64f02a0a8032a0e9?authuser=-1&hl=en&gl=us,1,0,0,0,0,34229,FL
Romano's Macaroni Grill,"Romano's Macaroni Grill, 17641 Bruce B Downs Blvd, Tampa, FL 33647",28.125,-82.375,Italian restaurantTakeout RestaurantRestaurant,2,7,https://www.google.com/maps/place//data=!4m2!3m1!1s0x88c2b7a0f0617995:0xfe026946796d4d01?authuser=-1&hl=en&gl=us,1,0,0,0,1,33647,FL
The Shack,"The Shack, 8771 US Hwy 301 South, Jacksonville, FL 32234",30.203125,-82.0,BarRestaurant,4,18,https://www.google.com/maps/place//data=!4m2!3m1!1s0x88e5eddc88b297bb:0xfa84be4d3f1da68d?authuser=-1&hl=en&gl=us,1,0,0,0,1,32234,FL
Polish Deli,"Polish Deli, 2676 Bayshore Blvd, Dunedin, FL 34698",28.046875,-82.75,Polish restaurant,3,6,https://www.google.com/maps/place//data=!4m2!3m1!1s0x88c2f3ad77adb2b1:0xe39d406cc7ecae60?authuser=-1&hl=en&gl=us,1,0,0,0,1,34698,FL
Subway,"Subway, 3930 FL-44, New Smyrna Beach, FL 32168",29.015625,-81.0625,Sandwich shopCatererFast food restaurantTakeout RestaurantRestaurant,3,18,https://www.google.com/maps/place//data=!4m2!3m1!1s0x88e7240eabdff42f:0xa59118725edd85e0?authuser=-1&hl=en&gl=us,1,0,0,0,0,32168,FL
Rib Shack BBQ,"Rib Shack BBQ, 3174 NW Federal Hwy, Jensen Beach, FL 34957",27.25,-80.25,Fast food restaurantBarbecue restaurant,2,8,https://www.google.com/maps/place//data=!4m2!3m1!1s0x88dee7d8d0259fad:0xea775c7f91f25f8d?authuser=-1&hl=en&gl=us,1,0,0,0,1,34957,FL
Sbarro,"Sbarro, 1910 Wells Rd Suite FC 15, Orange Park, FL 32073",30.1875,-81.75,Pizza restaurantCatererFast food restaurantItalian restaurantPasta shopPizza deliveryPizza Takeout,2,7,https://www.google.com/maps/place//data=!4m2!3m1!1s0x88e5c67d70363d5d:0xfbee211a34712e0e?authuser=-1&hl=en&gl=us,1,0,0,0,0,32073,FL
Restaurant Cubano,"Restaurant Cubano, 2319 28th St N, St. Petersburg, FL 33713",27.796875,-82.6875,Restaurant,4,18,https://www.google.com/maps/place//data=!4m2!3m1!1s0x88c2e3b894727003:0xcc788ea99b2eec9e?authuser=-1&hl=en&gl=us,1,0,0,0,0,33713,FL
3Natives,"3Natives, 14812 Pines Blvd, Pembroke Pines, FL 33027",26.0,-80.375,Health food restaurantCafeJuice shopSandwich shop,4,28,https://www.google.com/maps/place//data=!4m2!3m1!1s0x88d9a7c238a5816d:0x5321e417d1ad68f1?authuser=-1&hl=en&gl=us,1,0,0,0,0,33027,FL
Gandolfo's New York Deli,"Gandolfo's New York Deli, 10584-5 Old St Augustine Rd, Jacksonville, FL 32257",30.1875,-81.625,Fast food restaurantCatererDeliDelivery service,3,13,https://www.google.com/maps/place//data=!4m2!3m1!1s0x88e5c95942f5f9f3:0x527124c4fe82e16e?authuser=-1&hl=en&gl=us,1,0,0,0,1,32257,FL
Tropical Restaurant,"Tropical Restaurant, 4405 Kelly Rd, Tampa, FL 33615",27.984375,-82.5625,Cuban restaurant,4,8,https://www.google.com/maps/place//data=!4m2!3m1!1s0x88c2e9e08649cb13:0x837321c8ee1339f3?authuser=-1&hl=en&gl=us,1,0,0,0,1,33615,FL
2 Korean Girls,"2 Korean Girls, 2801a Florida Ave, Coconut Grove, FL 33133",25.734375,-80.25,Korean restaurant,4,58,https://www.google.com/maps/place//data=!4m2!3m1!1s0x88d9b1e28cc6f4db:0x4dc90cfb7b4f01b7?authuser=-1&hl=en&gl=us,1,0,0,0,0,33133,FL
Angie's Epicurean,"Angie's Epicurean, 2222 NW 5 Ave, Miami, FL 33127",25.796875,-80.1875,Ice cream shopDessert shopVegan restaurant,4,18,https://www.google.com/maps/place//data=!4m2!3m1!1s0x88d9b7962f330e37:0x545cbd258b6c31f4?authuser=-1&hl=en&gl=us,1,0,0,0,1,33127,FL
Sakura Japanese Restaurant,"Sakura Japanese Restaurant, 2785 NW 49th Ave, Ocala, FL 34482",29.21875,-82.1875,Japanese restaurant,5,3,https://www.google.com/maps/place//data=!4m2!3m1!1s0x88e62a97192e9417:0x28182fedc6f763b0?authuser=-1&hl=en&gl=us,1,0,0,0,1,34482,FL
Earl of Sandwich,"Earl of Sandwich, West Palm Beach Travel Plaza Mile Marker, Florida's Turnpike #94, Lake Worth, FL 33467",26.640625,-80.1875,Sandwich shopRestaurant,3,8,https://www.google.com/maps/place//data=!4m2!3m1!1s0x88d927d5255e250d:0x2b7b13b9b2c47a99?authuser=-1&hl=en&gl=us,1,0,0,0,1,33467,FL
Charley's Philly Steaks,"Charley's Philly Steaks, 2300 Gulf to Bay Blvd, Clearwater, FL 33765",27.96875,-82.75,Cheesesteak restaurant,4,38,https://www.google.com/maps/place//data=!4m2!3m1!1s0x88c2f1c41df93cd7:0x9b80f7f3de60197b?authuser=-1&hl=en&gl=us,1,0,0,0,0,33765,FL
The Whiskey Barrel,"The Whiskey Barrel, 15 S Boulevard of the Presidents, Sarasota, FL 34236",27.3125,-82.5625,BarRestaurant,4,48,https://www.google.com/maps/place//data=!4m2!3m1!1s0x88c36b8fc9e9d1a5:0x1c4219d25e5651fa?authuser=-1&hl=en&gl=us,1,0,0,0,0,34236,FL
Blimpie America's Sub Shop,"Blimpie America's Sub Shop, 514 Falcon Ave, Patrick AFB, FL 32925",28.25,-80.625,Sandwich shopCatererDeliFast food restaurantHealth food restaurantHoagie restaurantDelivery RestaurantTakeout RestaurantSalad shopSoup shop,3,3,https://www.google.com/maps/place//data=!4m2!3m1!1s0x88de1b60da0dc2b5:0x2f1b3c55b7cc7e91?authuser=-1&hl=en&gl=us,1,0,0,0,1,32925,FL
Starbucks,"Starbucks, 7575 SW 88th St, Miami, FL 33173",25.6875,-80.3125,Coffee shopBreakfast restaurantCafeCoffee storeEspresso barInternet cafe,3,35,https://www.google.com/maps/place//data=!4m2!3m1!1s0x88d9c76c8f00044b:0x20f2c6349aef7800?authuser=-1&hl=en&gl=us,1,0,0,0,0,33173,FL
Sushi Factory,"Sushi Factory, 8797 20th St, Vero Beach, FL 32966",27.640625,-80.5,Sushi restaurantJapanese restaurantSeafood restaurant,4,8,https://www.google.com/maps/place//data=!4m2!3m1!1s0x88de61125e392837:0xef7af8b0e1e0265d?authuser=-1&hl=en&gl=us,1,0,0,0,0,32966,FL
Darbster,"Darbster, 6299 N Federal Hwy, Boca Raton, FL 33487",26.40625,-80.0625,RestaurantAmerican restaurantBistroVegan restaurantVegetarian restaurantWine bar,4,8,https://www.google.com/maps/place//data=!4m2!3m1!1s0x88d8e0354318716f:0xfa5f341a346a2d6c?authuser=-1&hl=en&gl=us,1,0,0,0,1,33487,FL
The Chicken Spot,"The Chicken Spot, 1120 Central Ave, St. Petersburg, FL 33705",27.765625,-82.625,Restaurant,2,67,https://www.google.com/maps/place//data=!4m2!3m1!1s0x88c2e365365d9729:0x644aef64e031bf73?authuser=-1&hl=en&gl=us,1,0,0,0,0,33705,FL
Pizza Hut Express,"Pizza Hut Express, 8363 W Flagler Street Ktpx, Miami, FL 33144",25.765625,-80.3125,Pizza restaurantPizza Takeout,3,18,https://www.google.com/maps/place//data=!4m2!3m1!1s0x88d9b903162ca95b:0xda59f7a9fc581fad?authuser=-1&hl=en&gl=us,1,0,0,0,1,33144,FL
Ryan's,"Ryan's, 9006 Pensacola Blvd, Pensacola, FL 32534",30.53125,-87.25,Buffet restaurantAmerican restaurantBreakfast restaurantFamily restaurantRestaurant,2,16,https://www.google.com/maps/place//data=!4m2!3m1!1s0x889095bb90a3518d:0x7505796c493f14fb?authuser=-1&hl=en&gl=us,1,0,0,0,1,32534,FL
Jimmy John's,"Jimmy John's, 3423 Main Hwy, Miami, FL 33133",25.734375,-80.25,Sandwich shopCatererDelivery RestaurantRestaurant,4,16,https://www.google.com/maps/place//data=!4m2!3m1!1s0x88d9b7cf901aa20d:0x7ac94c53e005abde?authuser=-1&hl=en&gl=us,1,0,0,0,1,33133,FL
SUBWAY®Restaurants,"SUBWAY®Restaurants, 950 Blanding Blvd STE 9, Orange Park, FL 32065",30.140625,-81.75,RestaurantCatererFast food restaurantSandwich shop,3,7,https://www.google.com/maps/place//data=!4m2!3m1!1s0x88e5c479257cf7e5:0x202593b75d7213f0?authuser=-1&hl=en&gl=us,1,0,0,0,1,32065,FL
Subway,"Subway, 25615 State Rd 46, Sorrento Ave, Mt Plymouth, FL 32776",28.8125,-81.5625,Sandwich shopCatererFast food restaurantTakeout RestaurantRestaurant,4,28,https://www.google.com/maps/place//data=!4m2!3m1!1s0x88e7a06be791aa09:0x67394c10f5deb3ae?authuser=-1&hl=en&gl=us,1,0,0,0,0,32776,FL
Shell,"Shell, 5690 W State Rd 46, Sanford, FL 32771",28.8125,-81.375,Gas stationATMConvenience storeRestaurant,3,5,https://www.google.com/maps/place//data=!4m2!3m1!1s0x88e70d0b2e907fe7:0x3e998abdd1cacb73?authuser=-1&hl=en&gl=us,1,0,0,0,0,32771,FL
Doggystyle,"Doggystyle, 1544 Main St, Sarasota, FL 34236",27.34375,-82.5625,Hot dog restaurant,4,38,https://www.google.com/maps/place//data=!4m2!3m1!1s0x88c3410086bfee09:0x77bbbff4ff6938f6?authuser=-1&hl=en&gl=us,1,0,0,0,0,34236,FL
Subway,"Subway, 24830 S Tamiami Trail Suite 1600, Bonita Springs, FL 34134",26.375,-81.8125,Sandwich shopCatererFast food restaurantTakeout RestaurantRestaurant,3,38,https://www.google.com/maps/place//data=!4m2!3m1!1s0x88db1763826c4743:0x277418ee319b9a37?authuser=-1&hl=en&gl=us,1,0,0,0,0,34134,FL
The Daily Dose,"The Daily Dose, 1196 Tree Swallow Dr Unit 1318, Winter Springs, FL 32708",28.703125,-81.25,Health food restaurant,4,28,https://www.google.com/maps/place//data=!4m2!3m1!1s0x88e76d73c70251b9:0xaf6c7be4ea073095?authuser=-1&hl=en&gl=us,1,0,0,0,0,32708,FL
Lakeside Grill,"Lakeside Grill, 7007 Sea Harbor Dr, Orlando, FL 32821",28.40625,-81.4375,Restaurant,3,44,https://www.google.com/maps/place//data=!4m2!3m1!1s0x88e77e26033cceb5:0xa61b1cac6ad6ddf5?authuser=-1&hl=en&gl=us,1,0,0,0,0,32821,FL
Papa Murphy's Take 'N' Bake Pizza,"Papa Murphy's Take 'N' Bake Pizza, 837 N Tyndall Pkwy a, Callaway, FL 32404",30.15625,-85.5625,Pizza restaurantPizza Takeout,4,7,https://www.google.com/maps/place//data=!4m2!3m1!1s0x88937f452f42573f:0xb1ad35aae826bc90?authuser=-1&hl=en&gl=us,1,0,0,0,1,32404,FL
Shell,"Shell, 3957 Hendricks Ave, Jacksonville, FL 32207",30.28125,-81.625,Gas stationATMConvenience storeRestaurant,2,5,https://www.google.com/maps/place//data=!4m2!3m1!1s0x88e5b7ca52b3a39f:0x4d2686bf4682433a?authuser=-1&hl=en&gl=us,1,0,0,0,0,32207,FL
New China Restaurant,"New China Restaurant, 4785 Gulf Blvd, St Pete Beach, FL 33706",27.71875,-82.75,Restaurant,3,18,https://www.google.com/maps/place//data=!4m2!3m1!1s0x88c30344241b4171:0xf3473530b431c788?authuser=-1&hl=en&gl=us,1,0,0,0,0,33706,FL
Subway,"Subway, 2562 W Indiantown Rd, Jupiter, FL 33458",26.9375,-80.125,Sandwich shopCatererFast food restaurantTakeout RestaurantRestaurant,4,38,https://www.google.com/maps/place//data=!4m2!3m1!1s0x88ded664dbc87107:0xaedb4243e35923c2?authuser=-1&hl=en&gl=us,1,0,0,0,0,33458,FL
D,"D, 3210 St Johns Bluff Rd S, Jacksonville, FL 32246",30.28125,-81.5,Hookah barNight clubRestaurant,5,15,https://www.google.com/maps/place//data=!4m2!3m1!1s0x88e5b5994be40ba1:0x5c93029236eb64e2?authuser=-1&hl=en&gl=us,1,0,0,0,1,32246,FL
El Burrito,"El Burrito, 3105 Grand Ave, Miami, FL 33133",25.734375,-80.25,Mexican restaurant,3,8,https://www.google.com/maps/place//data=!4m2!3m1!1s0x88d9b7c578a08e73:0x3724ae2df08e799f?authuser=-1&hl=en&gl=us,1,0,0,0,1,33133,FL
sweetgreen,"sweetgreen, 3015 Grand Ave Space #140, Coconut Grove, FL 33133",25.734375,-80.25,Health food restaurantDelivery serviceTakeout RestaurantRestaurantSalad shopVegan restaurantVegetarian restaurant,3,8,https://www.google.com/maps/place//data=!4m2!3m1!1s0x88d9b74d8cc885c3:0x8e390b676d2e7ad1?authuser=-1&hl=en&gl=us,1,0,0,0,0,33133,FL
Pizza Cucina,"Pizza Cucina, 414-600 S Collier Blvd, Marco Island, FL 34145",25.921875,-81.75,Restaurant,4,6,https://www.google.com/maps/place//data=!4m2!3m1!1s0x88daef9296cf0547:0x48405b0315a834eb?authuser=-1&hl=en&gl=us,1,0,0,0,0,34145,FL
Pizza Hut Express,"Pizza Hut Express, Bp, 462487 State Rd 200, Yulee, FL 32097",30.625,-81.625,Pizza restaurantPizza Takeout,3,17,https://www.google.com/maps/place//data=!4m2!3m1!1s0x88e5a95b81414a5f:0xfef2807df05222af?authuser=-1&hl=en&gl=us,1,0,0,0,1,32097,FL
Giuseppe's Original Italian Fd,"Giuseppe's Original Italian Fd, 5941 Berryhill Rd, Milton, FL 32570",30.640625,-87.0625,Restaurant,4,5,https://www.google.com/maps/place//data=!4m2!3m1!1s0x8890ef82990353e7:0x13e02b27bc745488?authuser=-1&hl=en&gl=us,1,0,0,0,1,32570,FL
Murphy's,"Murphy's, 9617 US-301, Riverview, FL 33578",27.859375,-82.3125,BarRestaurant,3,2,https://www.google.com/maps/place//data=!4m2!3m1!1s0x88c2d1a3de88ee7f:0x9711113bf46ecef0?authuser=-1&hl=en&gl=us,1,0,0,0,1,33578,FL
King's Corner,"King's Corner, 3451 45th St, Vero Beach, FL 32967",27.671875,-80.4375,American restaurant,4,18,https://www.google.com/maps/place//data=!4m2!3m1!1s0x88de5e7ab4a2a32b:0x63576a62b219204e?authuser=-1&hl=en&gl=us,1,0,0,0,0,32967,FL
Buenos Aires Bakery,"Buenos Aires Bakery, 3765 W Flagler St, Coral Gables, FL 33134",25.765625,-80.25,Bakery,5,1,https://www.google.com/maps/place//data=!4m2!3m1!1s0x88d9b7728a7dfc39:0x9d167d8b6517a278?authuser=-1&hl=en&gl=us,0,1,0,0,1,33134,FL
Man vs Fries,"Man vs Fries, 1324 SW 1st Ave, Miami, FL 33130",25.765625,-80.1875,Restaurant,2,24,https://www.google.com/maps/place//data=!4m2!3m1!1s0x88d9b7f22430cba1:0x78f875f8e1da53af?authuser=-1&hl=en&gl=us,1,0,0,0,0,33130,FL
China One,"China One, 914 Lee Rd, Orlando, FL 32810",28.609375,-81.375,Chinese restaurant,3,44,https://www.google.com/maps/place//data=!4m2!3m1!1s0x88e7708d74c95d03:0xdfd04c6b7c860cca?authuser=-1&hl=en&gl=us,1,0,0,0,0,32810,FL
Pizza Hut,"Pizza Hut, 5110 North Ln, Orlando, FL 32808",28.59375,-81.4375,Pizza restaurantDelivery RestaurantTakeout RestaurantRestaurant,2,28,https://www.google.com/maps/place//data=!4m2!3m1!1s0x88e7775df70900b5:0x5907c6d86a14da91?authuser=-1&hl=en&gl=us,1,0,0,0,1,32808,FL
Jason's deli,"Jason's deli, 2230 3rd St S, Jacksonville Beach, FL 32250",30.265625,-81.375,CateringDeliDelivery RestaurantTakeout RestaurantRestaurantSandwich shop,4,4,https://www.google.com/maps/place//data=!4m2!3m1!1s0x88e449b5c496805b:0x417cdbc98460d8da?authuser=-1&hl=en&gl=us,1,0,0,0,0,32250,FL
Burrito Factory,"Burrito Factory, 4375 Lafayette St, Marianna, FL 32446",30.78125,-85.25,Restaurant,4,8,https://www.google.com/maps/place//data=!4m2!3m1!1s0x889320580c3535d1:0x361d6aeb23c366ad?authuser=-1&hl=en&gl=us,1,0,0,0,1,32446,FL
Waterstone Grill,"Waterstone Grill, 10301 International Dr, Orlando, FL 32821",28.421875,-81.4375,Mediterranean restaurant,3,38,https://www.google.com/maps/place//data=!4m2!3m1!1s0x88e77e24bdd80147:0x31e5f51cdf716b?authuser=-1&hl=en&gl=us,1,0,0,0,0,32821,FL
Planet Smoothie,"Planet Smoothie, 3947 Van Dyke Rd, Lutz, FL 33558",28.125,-82.5,Juice shopHealth food restaurant,4,48,https://www.google.com/maps/place//data=!4m2!3m1!1s0x88c2bfb9cf7b28ed:0x422b9fe7a17fdd35?authuser=-1&hl=en&gl=us,1,0,0,0,0,33558,FL
Zio's,"Zio's, 14860 S Military Trail, Delray Beach, FL 33484",26.453125,-80.125,RestaurantPizza restaurantSandwich shop,3,6,https://www.google.com/maps/place//data=!4m2!3m1!1s0x88d9202045ac9cc5:0x6ed5cb7f1d70f8bd?authuser=-1&hl=en&gl=us,1,0,0,0,1,33484,FL
Nrgize,"Nrgize, 18445 Pembroke, Pines Blvd, Pembroke Pines, FL 33029",26.015625,-80.375,Juice shopBreakfast restaurantCafeHealth food restaurant,3,4,https://www.google.com/maps/place//data=!4m2!3m1!1s0x80c8c43a46fec157:0x926bf804e22f038b?authuser=-1&hl=en&gl=us,1,0,0,0,0,33029,FL
Da Vinci Italian Restaurant,"Da Vinci Italian Restaurant, 6655 W Boynton Beach Blvd, Boynton Beach, FL 33437",26.53125,-80.125,Restaurant,2,8,https://www.google.com/maps/place//data=!4m2!3m1!1s0x88d921224e497d7f:0x69a96dc64f884338?authuser=-1&hl=en&gl=us,1,0,0,0,1,33437,FL
China Dragon,"China Dragon, 5677 Park St N, St. Petersburg, FL 33709",27.828125,-82.75,RestaurantAsian restaurantChinese restaurantFast food restaurantDelivery RestaurantTakeout Restaurant,3,34,https://www.google.com/maps/place//data=!4m2!3m1!1s0x88c2fca19c5e667f:0xce54b447051c0d48?authuser=-1&hl=en&gl=us,1,0,0,0,1,33709,FL
Chick-fil-A,"Chick-fil-A, 7490 Gall Blvd, Zephyrhills, FL 33541",28.265625,-82.1875,Fast food restaurantBreakfast restaurantCatererChicken restaurantDelivery serviceFamily restaurant,3,68,https://www.google.com/maps/place//data=!4m2!3m1!1s0x88dd53d12849fc7b:0x1998ef04be2333ac?authuser=-1&hl=en&gl=us,1,0,0,0,0,33541,FL
Le Macaron French Pastries,"Le Macaron French Pastries, 2300 Bee Ridge Rd #401, Sarasota, FL 34239",27.296875,-82.5,Pastry shopBakeryCoffee shopCookie shopDessert shopFrench restaurant,4,28,https://www.google.com/maps/place//data=!4m2!3m1!1s0x88c341abf552c1d5:0x167f9b3990327b03?authuser=-1&hl=en&gl=us,1,1,0,1,1,34239,FL
Sunrise Grill,"Sunrise Grill, 24432 FL-44, Eustis, FL 32736",28.84375,-81.5625,Breakfast restaurantDeli,4,17,https://www.google.com/maps/place//data=!4m2!3m1!1s0x88e7a1215dc308c5:0xe8be4ddc26077561?authuser=-1&hl=en&gl=us,1,0,0,0,0,32736,FL
Deluca's,"Deluca's, 5654 Yahl St, Naples, FL 34109",26.21875,-81.75,Hamburger restaurant,3,8,https://www.google.com/maps/place//data=!4m2!3m1!1s0x88db1dd8eea0682b:0xae3c06dcb504ae95?authuser=-1&hl=en&gl=us,1,0,0,0,0,34109,FL
It's Just Wings,"It's Just Wings, 4480 Mobile Hwy, Pensacola, FL 32506",30.4375,-87.25,Chicken wings restaurantChicken restaurantRestaurant,3,16,https://www.google.com/maps/place//data=!4m2!3m1!1s0x8890bf26ae6d0bf7:0x97bfad352db5582d?authuser=-1&hl=en&gl=us,1,0,0,0,0,32506,FL
Beef 'O' Brady's,"Beef 'O' Brady's, 3980 Tampa Rd, Oldsmar, FL 34677",28.03125,-82.6875,Family restaurantSports bar,3,25,https://www.google.com/maps/place//data=!4m2!3m1!1s0x88c2ec420baa5a2f:0xbc6250f41a077d6f?authuser=-1&hl=en&gl=us,1,0,0,0,1,34677,FL
GoJuice,"GoJuice, 3346 S Atlantic Ave, Daytona Beach, FL 32118",29.15625,-81.0,Juice shopAçaí shopBreakfast restaurantCoffee shopCoffee standLunch restaurantVegan restaurant,4,13,https://www.google.com/maps/place//data=!4m2!3m1!1s0x88e6d7fc3c22935b:0x80633e71f6811a71?authuser=-1&hl=en&gl=us,1,0,0,0,0,32118,FL
Pinto Thai Bistro,"Pinto Thai Bistro, 756 3rd St S, Jacksonville Beach, FL 32250",30.28125,-81.375,Thai restaurant,4,85,https://www.google.com/maps/place//data=!4m2!3m1!1s0x88e44996b8b1cdd5:0x12521570331b2689?authuser=-1&hl=en&gl=us,1,0,0,0,0,32250,FL
Subway,"Subway, 11861 Palm Beach Blvd #106, Fort Myers, FL 33905",26.703125,-81.75,Sandwich shopCatererFast food restaurantTakeout RestaurantRestaurant,4,18,https://www.google.com/maps/place//data=!4m2!3m1!1s0x88db6f20a6f4a265:0x2566dc0377e83ec3?authuser=-1&hl=en&gl=us,1,0,0,0,0,33905,FL
7-Eleven - Closed,"7-Eleven - Closed, 2000 Alafaya Trail, Oviedo, FL 32765",28.640625,-81.1875,Convenience storeBakeryBeer storeCandy storeCoffee shopFood products supplierGas stationSnack barTobacco shopWine store,3,8,https://www.google.com/maps/place//data=!4m2!3m1!1s0x88e769a0709f2395:0x77edd3e7caaafbe0?authuser=-1&hl=en&gl=us,0,1,0,0,1,32765,FL
Romano's Macaroni Grill,"Romano's Macaroni Grill, 1580 N Dale Mabry Hwy, Tampa, FL 33607",27.953125,-82.5,Italian restaurantTakeout RestaurantRestaurant,3,15,https://www.google.com/maps/place//data=!4m2!3m1!1s0x88c2c3a7b8ec182b:0x5fcf425801eb2e76?authuser=-1&hl=en&gl=us,1,0,0,0,1,33607,FL
Shell,"Shell, 6155 SW State Rd 200, Ocala, FL 34476",29.109375,-82.25,Gas stationATMConvenience storeRestaurant,3,8,https://www.google.com/maps/place//data=!4m2!3m1!1s0x88e87f5be2fa0e09:0xb9eff9898c1d7eab?authuser=-1&hl=en&gl=us,1,0,0,0,0,34476,FL
Einstein Bros. Bagels,"Einstein Bros. Bagels, 1000 Longfellow Blvd, Lakeland, FL 33801",28.03125,-81.9375,Bagel shopBakeryBreakfast restaurantCafeCoffee shop,3,18,https://www.google.com/maps/place//data=!4m2!3m1!1s0x88dd3f0f0116eb99:0xb8ab0e854c1ab65a?authuser=-1&hl=en&gl=us,1,1,0,0,0,33801,FL
New China Buffet,"New China Buffet, 940 N Miami Beach Blvd, North Miami Beach, FL 33162",25.921875,-80.1875,Restaurant,3,6,https://www.google.com/maps/place//data=!4m2!3m1!1s0x88d9addbea01e791:0xe4c01bbe1cac1860?authuser=-1&hl=en&gl=us,1,0,0,0,1,33162,FL
First Watch,"First Watch, 8646 Hunters Village Rd, Tampa, FL 33647",28.140625,-82.375,Breakfast restaurantCafeDiner,4,77,https://www.google.com/maps/place//data=!4m2!3m1!1s0x88c2b75f474e8a81:0x1e5fef381a20a6f5?authuser=-1&hl=en&gl=us,1,0,0,0,0,33647,FL
SUBWAY®Restaurants,"SUBWAY®Restaurants, 1275 Tamiami Trail, Port Charlotte, FL 33953",27.015625,-82.125,RestaurantCatererFast food restaurantSandwich shop,5,3,https://www.google.com/maps/place//data=!4m2!3m1!1s0x88dcabc879fde7cf:0xd96cb81cabaefe90?authuser=-1&hl=en&gl=us,1,0,0,0,1,33953,FL
Subway,"Subway, 99625 Overseas Hwy Bay 1, Key Largo, FL 33037",25.09375,-80.4375,Sandwich shopCatererFast food restaurantTakeout RestaurantRestaurant,3,178,https://www.google.com/maps/place//data=!4m2!3m1!1s0x88d7661b67d14f4d:0x2cd1a23a04165eae?authuser=-1&hl=en&gl=us,1,0,0,0,0,33037,FL
Wingstop,"Wingstop, 11752 E M.L.K. Jr Blvd, Seffner, FL 33584",27.984375,-82.3125,Chicken wings restaurant,3,18,https://www.google.com/maps/place//data=!4m2!3m1!1s0x88c2cdfc09f9a429:0x2105b7a8413fd09a?authuser=-1&hl=en&gl=us,1,0,0,0,0,33584,FL
The Oar House,"The Oar House, 11846 FL-24, Cedar Key, FL 32625",29.15625,-83.0,Restaurant,4,16,https://www.google.com/maps/place//data=!4m2!3m1!1s0x88e9a92f4d2fb6c3:0xe9fa6dd41782f2d5?authuser=-1&hl=en&gl=us,1,0,0,0,1,32625,FL
Pizza Hut Express,"Pizza Hut Express, 6295 W Waters Ave, Tampa, FL 33634",28.03125,-82.5625,Pizza restaurantPizza Takeout,4,17,https://www.google.com/maps/place//data=!4m2!3m1!1s0x88c2c1c28e8c3015:0x1067cccd07442680?authuser=-1&hl=en&gl=us,1,0,0,0,1,33634,FL
Persis Biryani Indian Grill,"Persis Biryani Indian Grill, 1818 W 23rd St, Panama City, FL 32405",30.1875,-85.6875,RestaurantIndian restaurantPakistani restaurantSouth Asian restaurant,4,28,https://www.google.com/maps/place//data=!4m2!3m1!1s0x889385f4ba051209:0x3b4e5db246898964?authuser=-1&hl=en&gl=us,1,0,0,0,0,32405,FL
Pizza Hut Express,"Pizza Hut Express, 7795 SW 40th St, Miami, FL 33155",25.734375,-80.3125,Pizza restaurantPizza Takeout,2,8,https://www.google.com/maps/place//data=!4m2!3m1!1s0x88d9b862036447a7:0x7e8642e271398198?authuser=-1&hl=en&gl=us,1,0,0,0,1,33155,FL
Starbucks,"Starbucks, 8912 Bertha, Palmer Blvd Suite A, Temple Terrace, FL 33617",28.03125,-82.375,Coffee shopBreakfast restaurantCafeCoffee storeEspresso barInternet cafe,5,7,https://www.google.com/maps/place//data=!4m2!3m1!1s0x88c2c7706a71c887:0x43468a928dca23d1?authuser=-1&hl=en&gl=us,1,0,0,0,0,33617,FL
Close,"Close, 800 5th Ave S, Naples, FL 34102",26.140625,-81.8125,Italian restaurantBreakfast restaurantPizza restaurant,4,8,https://www.google.com/maps/place//data=!4m2!3m1!1s0x88dae19e84bec107:0x549df9b3f5d86e5a?authuser=-1&hl=en&gl=us,1,0,0,0,1,34102,FL
TGI Fridays,"TGI Fridays, 34881 Emerald Coast Pkwy, Destin, FL 32541",30.390625,-86.4375,RestaurantAmerican restaurantBarBar & grillTakeout Restaurant,2,58,https://www.google.com/maps/place//data=!4m2!3m1!1s0x889143583f2f2387:0xc2e3a45058080b88?authuser=-1&hl=en&gl=us,1,0,0,0,1,32541,FL
Domino's Pizza,"Domino's Pizza, 15508 W Colonial Dr Bldg C, Winter Garden, FL 34787",28.546875,-81.625,Pizza deliveryDelivery RestaurantTakeout RestaurantPizza restaurantPizza Takeout,4,25,https://www.google.com/maps/place//data=!4m2!3m1!1s0x88e7857a2ac0b829:0x382a37dce647487a?authuser=-1&hl=en&gl=us,1,0,0,0,0,34787,FL
Bridges Restaurant,"Bridges Restaurant, 202 N Tamiami Trail, Sarasota, FL 34236",27.34375,-82.5625,Restaurant,4,38,https://www.google.com/maps/place//data=!4m2!3m1!1s0x88c3415f54a9bb83:0x520e67a083bb3571?authuser=-1&hl=en&gl=us,1,0,0,0,0,34236,FL
7-Eleven - Closed,"7-Eleven - Closed, 4332 Cortez Rd W, Bradenton, FL 34210",27.46875,-82.625,Convenience storeBakeryBeer storeCandy storeCoffee shopFood products supplierGas stationSnack barTobacco shopWine store,4,7,https://www.google.com/maps/place//data=!4m2!3m1!1s0x88c3166279e4af95:0x677087d5d3a8847d?authuser=-1&hl=en&gl=us,0,1,0,0,1,34210,FL
Starbucks,"Starbucks, 11222 Beach Blvd, Jacksonville, FL 32246",30.28125,-81.5,Coffee shopBreakfast restaurantCafeCoffee storeEspresso barInternet cafeRestaurant,4,8,https://www.google.com/maps/place//data=!4m2!3m1!1s0x88e5b5c6abf8999b:0x4d39a03a2f7ebd0a?authuser=-1&hl=en&gl=us,1,0,0,0,0,32246,FL
Fast Track,"Fast Track, 5200 S Jefferson, Lamont, FL 32336",30.46875,-83.875,RestaurantATMAuto repair shopConvenience storeGas stationTruck stop,3,13,https://www.google.com/maps/place//data=!4m2!3m1!1s0x88ec39293891d945:0xd5d877e56e8839?authuser=-1&hl=en&gl=us,1,0,0,0,0,32336,FL
La Tapatia,"La Tapatia, 2113 Citrus Blvd, Leesburg, FL 34748",28.84375,-81.875,Mexican restaurant,2,6,https://www.google.com/maps/place//data=!4m2!3m1!1s0x88e7c12a8bf3bfa3:0x8e97abc29bb11f24?authuser=-1&hl=en&gl=us,1,0,0,0,1,34748,FL
Shell,"Shell, 11292 W Hillsborough Ave, Tampa, FL 33635",28.015625,-82.625,Gas stationATMCar washConvenience storeRestaurant,3,8,https://www.google.com/maps/place//data=!4m2!3m1!1s0x88c2ebd42158ee41:0x252350e7c371141f?authuser=-1&hl=en&gl=us,1,0,0,0,1,33635,FL
Pupuseria,"Pupuseria, 7740 Palm River Rd, Tampa, FL 33619",27.9375,-82.375,Restaurant,5,8,https://www.google.com/maps/place//data=!4m2!3m1!1s0x88c2cf76c1c7c027:0x25ae56b7a2adb74a?authuser=-1&hl=en&gl=us,1,0,0,0,0,33619,FL
Sax,"Sax, 6008 14th St W, Bradenton, FL 34207",27.4375,-82.5625,Hamburger restaurant,3,6,https://www.google.com/maps/place//data=!4m2!3m1!1s0x88c315ef7b80052f:0x338b1881d09a77b2?authuser=-1&hl=en&gl=us,1,0,0,0,1,34207,FL
Subway,"Subway, 829 Tamiami Trail, Port Charlotte, FL 33953",27.015625,-82.1875,Sandwich shopCatererFast food restaurantTakeout RestaurantRestaurant,3,8,https://www.google.com/maps/place//data=!4m2!3m1!1s0x88dcaba6847cb39f:0xaea6e55f3c742dcc?authuser=-1&hl=en&gl=us,1,0,0,0,0,33953,FL
Taco Fiesta,"Taco Fiesta, 16971 Alico Mission Way, Fort Myers, FL 33908",26.5,-81.875,Mexican restaurant,4,16,https://www.google.com/maps/place//data=!4m2!3m1!1s0x88db1594b994041d:0x37c71794564f95e8?authuser=-1&hl=en&gl=us,1,0,0,0,1,33908,FL
Flower Market,"Flower Market, 5851 Wiles Rd, Coral Springs, FL 33067",26.28125,-80.1875,FloristFloridian restaurantWedding service,3,108,https://www.google.com/maps/place//data=!4m2!3m1!1s0x88d91b45d1518a03:0x4dd8f743c3bd0ace?authuser=-1&hl=en&gl=us,1,0,0,0,0,33067,FL
McDonald's,"McDonald's, 4704 Golden Gate Pkwy, Naples, FL 34116",26.1875,-81.6875,Fast food restaurantBreakfast restaurantCoffee shopHamburger restaurantIce cream shopRestaurantSalad shopSandwich shop,3,244,https://www.google.com/maps/place//data=!4m2!3m1!1s0x88db1d577dbd6dfb:0x5a0e01845200603f?authuser=-1&hl=en&gl=us,1,0,0,0,1,34116,FL
Villa Italian Kitchen,"Villa Italian Kitchen, 9202 Jeff Fuqua Blvd Suite 1427, Orlando, FL 32827",28.4375,-81.3125,Pizza restaurantCatererItalian restaurantPasta shopRestaurantSalad shop,2,68,https://www.google.com/maps/place//data=!4m2!3m1!1s0x88e762e543bb38b9:0xf7986ba9468dd55f?authuser=-1&hl=en&gl=us,1,0,0,0,0,32827,FL
Hooters,"Hooters, 2282 Weston Rd, Weston, FL 33326",26.09375,-80.375,Restaurant,3,47,https://www.google.com/maps/place//data=!4m2!3m1!1s0x88d9a103956bef9b:0x7b74aea496fc6b6c?authuser=-1&hl=en&gl=us,1,0,0,0,0,33326,FL
Lennys Grill & Subs,"Lennys Grill & Subs, 16055 Emerald Coast Pkwy #114, Destin, FL 32541",30.390625,-86.4375,Sandwich shopAmerican restaurantBox lunch supplierCatererDeliFast food restaurantTakeout Restaurant,4,35,https://www.google.com/maps/place//data=!4m2!3m1!1s0x88914358907984bb:0x1ec69b0aac44d394?authuser=-1&hl=en&gl=us,1,0,0,0,1,32541,FL
Amoco,"Amoco, 11001 SW 40th St, Miami, FL 33165",25.734375,-80.375,Gas stationATMCar washConvenience storeRestaurant,5,2,https://www.google.com/maps/place//data=!4m2!3m1!1s0x88d9bf51b509bed9:0xdbb3ee65a434d150?authuser=-1&hl=en&gl=us,1,0,0,0,0,33165,FL
Dunkin',"Dunkin', 350 W Sunrise Blvd, Fort Lauderdale, FL 33311",26.140625,-80.125,Coffee shopBagel shopBakeryBreakfast restaurantDonut shopFast food restaurantTakeout Restaurant,3,148,https://www.google.com/maps/place//data=!4m2!3m1!1s0x88d901fce13eb7a3:0x30878afa387b5ae5?authuser=-1&hl=en&gl=us,1,1,0,0,0,33311,FL
China Garden,"China Garden, 3300 N Roosevelt Blvd 5618 296, Key West, FL 33040",24.5625,-81.75,Chinese restaurantFine dining restaurantDelivery RestaurantTakeout Restaurant,3,254,https://www.google.com/maps/place//data=!4m2!3m1!1s0x88d1b144ffd32bf1:0x15ddeb4fe829259?authuser=-1&hl=en&gl=us,1,0,0,0,0,33040,FL
Teriyaki Madness,"Teriyaki Madness, 9025 SW 72nd Pl, Miami, FL 33156",25.6875,-80.3125,Asian fusion restaurantAsian restaurantJapanese restaurant,4,108,https://www.google.com/maps/place//data=!4m2!3m1!1s0x88d9c7a4f9eabfb7:0xfa941028bfeeb6ee?authuser=-1&hl=en&gl=us,1,0,0,0,0,33156,FL
Sushi King,"Sushi King, 2750 Race Track Rd #106, Fruit Cove, FL 32259",30.109375,-81.5625,Sushi restaurantJapanese restaurant,4,187,https://www.google.com/maps/place//data=!4m2!3m1!1s0x88e5cdce5e4ab657:0x80a3d1beda6cec5d?authuser=-1&hl=en&gl=us,1,0,0,0,0,32259,FL
Subway,"Subway, 5730 NW 176th St, Hialeah, FL 33015",25.9375,-80.3125,Sandwich shopCatererFast food restaurantTakeout RestaurantRestaurant,4,227,https://www.google.com/maps/place//data=!4m2!3m1!1s0x88d9a56bed720047:0x3deead66272581b1?authuser=-1&hl=en&gl=us,1,0,0,0,0,33015,FL
7-Eleven - Closed,"7-Eleven - Closed, 8801 20th St, Vero Beach, FL 32966",27.640625,-80.5,Convenience storeBakeryBeer storeCandy storeCoffee shopFood products supplierGas stationSnack barTobacco shopWine store,4,8,https://www.google.com/maps/place//data=!4m2!3m1!1s0x88de61af22c23bd3:0xfa9ba5d2fc4ace5?authuser=-1&hl=en&gl=us,0,1,0,0,1,32966,FL
Tropical Smoothie Cafe,"Tropical Smoothie Cafe, 104 Bartram Oaks Walk Suite 106, Jacksonville, FL 32259",30.125,-81.625,RestaurantJuice shop,3,134,https://www.google.com/maps/place//data=!4m2!3m1!1s0x88e5ce8a9f9e48dd:0x582fe706af634aa7?authuser=-1&hl=en&gl=us,1,0,0,0,0,32259,FL
Subway,"Subway, 4767 NW 36th St, Miami Springs, FL 33166",25.8125,-80.25,Sandwich shopCatererFast food restaurantTakeout RestaurantRestaurant,3,27,https://www.google.com/maps/place//data=!4m2!3m1!1s0x88d9b7b3d1a6cd5d:0xe2418cb0c3faa789?authuser=-1&hl=en&gl=us,1,0,0,0,0,33166,FL
Fresh Food Company,"Fresh Food Company, 60 Inner Rd, Gainesville, FL 32610",29.640625,-82.3125,Buffet restaurantFood service,3,208,https://www.google.com/maps/place//data=!4m2!3m1!1s0x88e8a39cc27eaa43:0xfce353b3f0035190?authuser=-1&hl=en&gl=us,1,0,0,0,0,32610,FL
Pita's Republic,"Pita's Republic, 3411 SW Archer Rd, Gainesville, FL 32608",29.625,-82.375,Restaurant,3,2,https://www.google.com/maps/place//data=!4m2!3m1!1s0x88e8a324a3170695:0xbcc67a826aae0ef6?authuser=-1&hl=en&gl=us,1,0,0,0,1,32608,FL
Auntie Anne's,"Auntie Anne's, 140 University Town Center Dr Unit 109, Sarasota, FL 34243",27.390625,-82.4375,Pretzel storeBakeryCafeRestaurant,3,14,https://www.google.com/maps/place//data=!4m2!3m1!1s0x88c338e76fe9bad9:0xc4ad05039c56dcca?authuser=-1&hl=en&gl=us,1,1,0,0,0,34243,FL
China Town,"China Town, 4245 Mariner Blvd, Spring Hill, FL 34609",28.5,-82.5625,Chinese restaurantDelivery Chinese restaurantTaco restaurant,4,78,https://www.google.com/maps/place//data=!4m2!3m1!1s0x88e81fb28badb06d:0x9fdaf94d06457f6b?authuser=-1&hl=en&gl=us,1,0,0,0,0,34609,FL
Domino's Pizza,"Domino's Pizza, 10101 Glades Rd, Boca Raton, FL 33498",26.375,-80.1875,Pizza deliveryDelivery RestaurantTakeout RestaurantPizza restaurantPizza Takeout,3,178,https://www.google.com/maps/place//data=!4m2!3m1!1s0x88d91958cf39898f:0xc0e19b7c48c64ade?authuser=-1&hl=en&gl=us,1,0,0,0,0,33498,FL
Subway,"Subway, 940 Colonial Grand La, 880 TownPark D1, Lake Mary, FL 32746",28.796875,-81.375,Sandwich shopCatererFast food restaurant,3,18,https://www.google.com/maps/place//data=!4m2!3m1!1s0x88e70d4037473405:0x3260a3644c4fcf2e?authuser=-1&hl=en&gl=us,1,0,0,0,1,32746,FL
Old Mexico,"Old Mexico, 1010 15th St, Panama City, FL 32401",30.171875,-85.6875,Mexican restaurantLatin American restaurant,4,206,https://www.google.com/maps/place//data=!4m2!3m1!1s0x8893815725a1c127:0x6232927f3ffdd9d4?authuser=-1&hl=en&gl=us,1,0,0,0,1,32401,FL
Taqueria Sanchez,"Taqueria Sanchez, 750 15th St #2266, Panama City, FL 32401",30.171875,-85.6875,Taco restaurant,3,68,https://www.google.com/maps/place//data=!4m2!3m1!1s0x8893815d1a2ca7d1:0x9c535b6cb4e0b4df?authuser=-1&hl=en&gl=us,1,0,0,0,0,32401,FL
sweetgreen,"sweetgreen, 122 Giralda Ave, Miami, FL 33134",25.75,-80.25,Health food restaurantDelivery serviceTakeout RestaurantRestaurantSalad shopVegan restaurantVegetarian restaurant,4,48,https://www.google.com/maps/place//data=!4m2!3m1!1s0x88d9b747cffc62f5:0x7a60ecb0897c1795?authuser=-1&hl=en&gl=us,1,0,0,0,0,33134,FL
Papa John's Pizza,"Papa John's Pizza, 10 Preston Cir, Crawfordville, FL 32327",30.203125,-84.375,Pizza restaurant,3,68,https://www.google.com/maps/place//data=!4m2!3m1!1s0x88ec85effb1e63cf:0x3bebadc693c91e97?authuser=-1&hl=en&gl=us,1,0,0,0,0,32327,FL
Popeye's,"Popeye's, 2123 Crawfordville Hwy, Crawfordville, FL 32327",30.21875,-84.375,Restaurant,4,78,https://www.google.com/maps/place//data=!4m2!3m1!1s0x88ec85346469f043:0x83479529ab6da531?authuser=-1&hl=en&gl=us,1,0,0,0,0,32327,FL
Quiznos,"Quiznos, 2100 Northwest 42nd Avenue, Miami, FL 33126",25.796875,-80.25,Sandwich shopFast food restaurantTakeout RestaurantRestaurant,3,48,https://www.google.com/maps/place//data=!4m2!3m1!1s0x88d9b75f610a097f:0xa28d14f0a2ecd384?authuser=-1&hl=en&gl=us,1,0,0,0,0,33126,FL
Subway,"Subway, 2521 Thomas Dr Unit C, Panama City, FL 32408",30.15625,-85.75,Sandwich shopCatererFast food restaurantTakeout RestaurantRestaurant,4,118,https://www.google.com/maps/place//data=!4m2!3m1!1s0x889388c574244ef5:0x8bcebc1e82f0c2e8?authuser=-1&hl=en&gl=us,1,0,0,0,0,32408,FL
Pasha's,"Pasha's, 1414 Brickell Ave, Miami, FL 33131",25.765625,-80.1875,Mediterranean restaurantRestaurant,3,18,https://www.google.com/maps/place//data=!4m2!3m1!1s0x88d9b68128806b11:0x50957e0a717fb072?authuser=-1&hl=en&gl=us,1,0,0,0,1,33131,FL
Dunkin,"Dunkin, Shell Gas Station, 100 Dog Track Rd, Longwood, FL 32750",28.6875,-81.375,Coffee shopBagel shopBakeryBreakfast restaurantDonut shopFast food restaurantTakeout Restaurant,3,78,https://www.google.com/maps/place//data=!4m2!3m1!1s0x88e77205df86adc7:0x18144334f7ccffc3?authuser=-1&hl=en&gl=us,1,1,0,0,1,32750,FL
Long John Silver's,"Long John Silver's, 306 N US Hwy 17 92, Longwood, FL 32750",28.703125,-81.3125,Seafood restaurantFast food restaurantRestaurant,2,55,https://www.google.com/maps/place//data=!4m2!3m1!1s0x88e76d925b96120f:0x49e1088a7140451b?authuser=-1&hl=en&gl=us,1,0,0,0,1,32750,FL
Awful Waffle,"Awful Waffle, 1500 W Cass St, Tampa, FL 33606",27.953125,-82.5,Restaurant,4,108,https://www.google.com/maps/place//data=!4m2!3m1!1s0x88c2bf6a949c52b7:0x4f76de18292961ff?authuser=-1&hl=en&gl=us,1,0,0,0,0,33606,FL
Clean Eatz,"Clean Eatz, 2620 US Hwy 27 S Suite 800, Clermont, FL 34711",27.5625,-81.5,Health food restaurant,4,17,https://www.google.com/maps/place//data=!4m2!3m1!1s0x88dc57ed5a675af3:0x13a8aa92a21075fb?authuser=-1&hl=en&gl=us,1,0,0,0,1,34711,FL
Horizons,"Horizons, 200 Henderson Resort Way, Destin, FL 32541",30.390625,-86.4375,Seafood restaurant,4,28,https://www.google.com/maps/place//data=!4m2!3m1!1s0x889144a7af2ff747:0x203e010838618afa?authuser=-1&hl=en&gl=us,1,0,0,0,0,32541,FL
Everything Kids,"Everything Kids, Oakland Park, FL 33309",26.171875,-80.1875,Kerala restaurant,5,1,https://www.google.com/maps/place//data=!4m2!3m1!1s0x88d906ad4df0215d:0x50bf26944e92a93e?authuser=-1&hl=en&gl=us,1,0,0,0,1,33309,FL
Doc's Diner,"Doc's Diner, 1015 N Jefferson St, Monticello, FL 32344",30.546875,-83.875,Restaurant,3,8,https://www.google.com/maps/place//data=!4m2!3m1!1s0x88ec39c25a8ef683:0x2ea000d2d04d6c25?authuser=-1&hl=en&gl=us,1,0,0,0,0,32344,FL
Wing Zone,"Wing Zone, 6215 N 9th Ave, Pensacola, FL 32504",30.484375,-87.1875,Chicken wings restaurantAmerican restaurantHamburger restaurantDelivery Restaurant,2,38,https://www.google.com/maps/place//data=!4m2!3m1!1s0x8890c023254ae995:0xb10e6bec310df52a?authuser=-1&hl=en&gl=us,1,0,0,0,1,32504,FL
Bono's Pit Bar-B-Q,"Bono's Pit Bar-B-Q, 6760 W Newberry Rd, Gainesville, FL 32605",29.65625,-82.4375,Barbecue restaurantCaterer,3,48,https://www.google.com/maps/place//data=!4m2!3m1!1s0x88e8bc9eb93757c5:0x3ed739efacd83eb6?authuser=-1&hl=en&gl=us,1,0,0,0,1,32605,FL
River Island Grilling Company,"River Island Grilling Company, Spences Trace Dr, Kissimmee, FL 34747",28.359375,-81.625,Restaurant,4,64,https://www.google.com/maps/place//data=!4m2!3m1!1s0x88dd7de93fac4ca7:0x4f386b07b775bb83?authuser=-1&hl=en&gl=us,1,0,0,0,0,34747,FL
Domino's Pizza,"Domino's Pizza, 4550 Palm Beach Blvd, Fort Myers, FL 33905",26.671875,-81.8125,Pizza deliveryDelivery RestaurantTakeout RestaurantPizza restaurantPizza Takeout,3,258,https://www.google.com/maps/place//data=!4m2!3m1!1s0x88db6976893e60d5:0xcebc205db2e7e91c?authuser=-1&hl=en&gl=us,1,0,0,0,0,33905,FL
China Taste,"China Taste, 4335 S Hwy 27, Clermont, FL 34711",28.5,-81.6875,Chinese restaurant,4,158,https://www.google.com/maps/place//data=!4m2!3m1!1s0x88e788d380b2303d:0x4ab727e8e8e14389?authuser=-1&hl=en&gl=us,1,0,0,0,0,34711,FL
Legends Bar & Grill,"Legends Bar & Grill, 1700 Legendary Blvd, Clermont, FL 34711",28.5,-81.75,RestaurantAmerican restaurantBar,4,54,https://www.google.com/maps/place//data=!4m2!3m1!1s0x88e7891f0b0a0a11:0xfafb68ba5066bd0d?authuser=-1&hl=en&gl=us,1,0,0,0,0,34711,FL
Mama Rosa's Pizza,"Mama Rosa's Pizza, 1826 Lewis Turner Blvd, Fort Walton Beach, FL 32547",30.46875,-86.625,Pizza restaurant,5,4,https://www.google.com/maps/place//data=!4m2!3m1!1s0x88913e3609879e75:0x160598a7a8caa6e5?authuser=-1&hl=en&gl=us,1,0,0,0,1,32547,FL
Starbucks Coffee,"Starbucks Coffee, 1620 S Federal Hwy A, Boynton Beach, FL 33435",26.515625,-80.0625,Coffee shopBreakfast restaurantCafeCoffee storeEspresso barInternet cafe,4,28,https://www.google.com/maps/place//data=!4m2!3m1!1s0x88d8df46f2819fa9:0x434d98e00103fb19?authuser=-1&hl=en&gl=us,1,0,0,0,0,33435,FL
Subway,"Subway, 7431 W Colonial Dr, Orlando, FL 32818",28.546875,-81.5,Sandwich shopCatererFast food restaurantTakeout RestaurantRestaurant,3,98,https://www.google.com/maps/place//data=!4m2!3m1!1s0x88e77850a5e0d5f7:0x9f88ac1c6b3e62b?authuser=-1&hl=en&gl=us,1,0,0,0,1,32818,FL
Yums Chinese Restaurant,"Yums Chinese Restaurant, 1620 Airport Blvd #120, Pensacola, FL 32504",30.484375,-87.1875,Chinese restaurantAsian restaurant,3,288,https://www.google.com/maps/place//data=!4m2!3m1!1s0x8890c0117c457ded:0x31a61a9381e2edcd?authuser=-1&hl=en&gl=us,1,0,0,0,0,32504,FL
.,"., 3360 N Federal Hwy, Boca Raton, FL 33431",26.375,-80.0625,RestaurantBarLounge,3,118,https://www.google.com/maps/place//data=!4m2!3m1!1s0x88d8e1bff812ceb3:0x7a4e8326ad53a207?authuser=-1&hl=en&gl=us,1,0,0,0,1,33431,FL
Aunt M,"Aunt M, 5001 Heckscher Dr, Jacksonville, FL 32226",30.421875,-81.5625,American restaurant,3,5,https://www.google.com/maps/place//data=!4m2!3m1!1s0x88e5b294eeafbacd:0x16a406d9cff3ab32?authuser=-1&hl=en&gl=us,1,0,0,0,1,32226,FL
Waffle House,"Waffle House, 50 Bauer Rd, Pensacola, FL 32506",30.390625,-87.375,Breakfast restaurantAmerican restaurantDinerFamily restaurantTakeout RestaurantRestaurant,3,54,https://www.google.com/maps/place//data=!4m2!3m1!1s0x8890a5614df05f0d:0xffd6549d70104fde?authuser=-1&hl=en&gl=us,1,0,0,0,0,32506,FL
bp,"bp, 15450 SW 136th St, Miami, FL 33196",25.640625,-80.4375,Gas stationATMCar washConvenience storeRestaurant,4,1,https://www.google.com/maps/place//data=!4m2!3m1!1s0x88d9c1c6446cc8ef:0x4ce1b6778012767b?authuser=-1&hl=en&gl=us,1,0,0,0,1,33196,FL
Hot Wok,"Hot Wok, 1615 County Rd 220 #155, Fleming Island, FL 32003",30.09375,-81.6875,Chinese restaurantDelivery Restaurant,3,78,https://www.google.com/maps/place//data=!4m2!3m1!1s0x88e5c53e8b05da33:0x779161ca080ad2b2?authuser=-1&hl=en&gl=us,1,0,0,0,0,32003,FL
Subway,"Subway, 4218 W Plaza Dr, Orlando, FL 32816",28.609375,-81.1875,Sandwich shopCatererFast food restaurantTakeout RestaurantRestaurant,3,58,https://www.google.com/maps/place//data=!4m2!3m1!1s0x88e7685c30e1a7ad:0xb2cb7fd4d963abe6?authuser=-1&hl=en&gl=us,1,0,0,0,0,32816,FL
Nathan's,"Nathan's, 94 Florida's Turnpike, Lake Worth, FL 33461",26.640625,-80.1875,Fast food restaurant,2,7,https://www.google.com/maps/place//data=!4m2!3m1!1s0x88d9261ae84745f1:0x78180b12a373800b?authuser=-1&hl=en&gl=us,1,0,0,0,1,33461,FL
China 1,"China 1, 1192 Jacaranda Blvd, Venice, FL 34292",27.078125,-82.375,Chinese restaurantAsian fusion restaurantAsian restaurantChinese takeawayDelivery Chinese restaurantMandarin restaurantTakeout RestaurantRestaurant,3,88,https://www.google.com/maps/place//data=!4m2!3m1!1s0x88c35a0a768f5837:0x7b0e4cb20e1725b8?authuser=-1&hl=en&gl=us,1,0,0,0,0,34292,FL
